{"type":"FeatureCollection","bbox":[113.658993,-43.314749,159.071307,-9.230628],"crs":{"type":"name","properties":{"name":"EPSG:4283"}},"features":[{"type":"Feature","geometry":{"type":"Point","coordinates":[152.909473,-31.439829000000003]},"properties":{"sector":"Private","hospital_name":"Coolenberg Day Surgery","phone_number":"02 6584 0368","website":null,"state":"NSW","long":152.909473,"postcode":2444,"bed_cat":null,"id":215,"beds":null,"suburb":"Port Macquarie","description":null,"ogc_fid":1,"street_address":"60 Lake Road","lat":-31.439829},"id":"my_hospital_beds.1"},{"type":"Feature","geometry":{"type":"Point","coordinates":[140.786887,-37.805952]},"properties":{"sector":"Private","hospital_name":"Mount Gambier Private Hospital","phone_number":"08 8721 1412","website":null,"state":"SA","long":140.786887,"postcode":5290,"bed_cat":1,"id":616,"beds":"<50","suburb":"Mount Gambier","description":null,"ogc_fid":2,"street_address":"276-300 Wehl Street North","lat":-37.805952},"id":"my_hospital_beds.2"},{"type":"Feature","geometry":{"type":"Point","coordinates":[152.995132,-27.473491]},"properties":{"sector":"Private","hospital_name":"River City Private Hospital","phone_number":null,"website":null,"state":"Qld","long":152.995132,"postcode":4066,"bed_cat":1,"id":762,"beds":"<50","suburb":"Auchenflower","description":null,"ogc_fid":3,"street_address":"401 Milton Road","lat":-27.473491},"id":"my_hospital_beds.3"},{"type":"Feature","geometry":{"type":"Point","coordinates":[140.786677,-37.805103]},"properties":{"sector":"Public","hospital_name":"South East Regional CHS","phone_number":"08 8721 1460","website":null,"state":"SA","long":140.786677,"postcode":5290,"bed_cat":1,"id":820,"beds":"<50","suburb":null,"description":"Regional hospital","ogc_fid":4,"street_address":null,"lat":-37.805103},"id":"my_hospital_beds.4"},{"type":"Feature","geometry":{"type":"Point","coordinates":[144.393267,-38.182406]},"properties":{"sector":"Private","hospital_name":"The Geelong Clinic","phone_number":"03 5248 1155","website":"www.thegeelongclinic.com.au","state":"Vic","long":144.393267,"postcode":3219,"bed_cat":1,"id":927,"beds":"<50","suburb":"St Albans Park","description":null,"ogc_fid":5,"street_address":"98 Townsend Road","lat":-38.182406},"id":"my_hospital_beds.5"},{"type":"Feature","geometry":{"type":"Point","coordinates":[115.837344,-31.940992]},"properties":{"sector":"Private","hospital_name":"Abbotsford Private Hospital","phone_number":"08 9200 6282","website":"www.abbotsfordhospital.com.au","state":"WA","long":115.837344,"postcode":6007,"bed_cat":1,"id":1,"beds":"<50","suburb":"West Leederville","description":null,"ogc_fid":6,"street_address":"61 Cambridge Street","lat":-31.940992},"id":"my_hospital_beds.6"},{"type":"Feature","geometry":{"type":"Point","coordinates":[138.613167,-34.90658]},"properties":{"sector":"Private","hospital_name":"Adelaide Clinic","phone_number":"08 8269 8100","website":"www.adelaideclinic.com.au\/","state":"SA","long":138.613167,"postcode":5081,"bed_cat":2,"id":2,"beds":"50-99","suburb":"Gilberton","description":null,"ogc_fid":7,"street_address":"33 Park Terrace","lat":-34.90658},"id":"my_hospital_beds.7"},{"type":"Feature","geometry":{"type":"Point","coordinates":[138.588817,-34.922409]},"properties":{"sector":"Private","hospital_name":"Adelaide Day Surgery Pty Ltd","phone_number":"08 8239 4900","website":"www.curagroup.com.au\/adelaide-day-surgery","state":"SA","long":138.588817,"postcode":5000,"bed_cat":1,"id":3,"beds":"<50","suburb":"Adelaide","description":null,"ogc_fid":8,"street_address":"18 North Terrace","lat":-34.922409},"id":"my_hospital_beds.8"},{"type":"Feature","geometry":{"type":"Point","coordinates":[138.6215,-34.94042]},"properties":{"sector":"Private","hospital_name":"Adelaide Eye & Laser Centre","phone_number":"08 8274 7000","website":"www.aelc.com.au","state":"SA","long":138.6215,"postcode":5063,"bed_cat":null,"id":4,"beds":null,"suburb":"Eastwood","description":null,"ogc_fid":9,"street_address":"215 Greenhill Road","lat":-34.94042},"id":"my_hospital_beds.9"},{"type":"Feature","geometry":{"type":"Point","coordinates":[138.621022,-34.917691]},"properties":{"sector":"Private","hospital_name":"Adelaide Surgicentre","phone_number":"08 8211 0000","website":"www.asec.net.au","state":"SA","long":138.621022,"postcode":5067,"bed_cat":1,"id":5,"beds":"<50","suburb":"Kent Town","description":null,"ogc_fid":10,"street_address":"89 King William Street","lat":-34.917691},"id":"my_hospital_beds.10"},{"type":"Feature","geometry":{"type":"Point","coordinates":[151.135032,-33.964843]},"properties":{"sector":"Private","hospital_name":"Aesthetic Day Surgery","phone_number":"02 9553 9905","website":"www.aestheticdaysurgery.com.au","state":"NSW","long":151.135032,"postcode":2217,"bed_cat":null,"id":6,"beds":null,"suburb":"Kogarah","description":null,"ogc_fid":11,"street_address":"14 Kensington Street","lat":-33.964843},"id":"my_hospital_beds.11"},{"type":"Feature","geometry":{"type":"Point","coordinates":[117.90446800000002,-35.003407]},"properties":{"sector":"Public","hospital_name":"Albany Hospital","phone_number":"08 9892 2222","website":"www.health.wa.gov.au\/services\/detail.cfm?Unit_ID=4","state":"WA","long":117.904468,"postcode":6330,"bed_cat":3,"id":7,"beds":"100-199","suburb":"Albany","description":"Large regional hospital with an emergency department","ogc_fid":12,"street_address":"Warden Avenue","lat":-35.003407},"id":"my_hospital_beds.12"},{"type":"Feature","geometry":{"type":"Point","coordinates":[144.972151,-37.834246]},"properties":{"sector":"Private","hospital_name":"Albert Road Clinic","phone_number":"03 9256 8311","website":"www.albertroadclinic.com.au\/","state":"Vic","long":144.972151,"postcode":3004,"bed_cat":2,"id":8,"beds":"50-99","suburb":"Melbourne","description":null,"ogc_fid":13,"street_address":"31 Albert Road","lat":-37.834246},"id":"my_hospital_beds.13"},{"type":"Feature","geometry":{"type":"Point","coordinates":[146.939146,-36.078401]},"properties":{"sector":"Public","hospital_name":"Albury Wodonga Health [Albury Campus]","phone_number":"02 6058 4444","website":null,"state":"NSW","long":146.939146,"postcode":2640,"bed_cat":3,"id":9,"beds":"100-199","suburb":"Albury","description":"Large regional hospital with an emergency department","ogc_fid":14,"street_address":"201 Borella Road","lat":-36.078401},"id":"my_hospital_beds.14"},{"type":"Feature","geometry":{"type":"Point","coordinates":[146.879417,-36.131791]},"properties":{"sector":"Public","hospital_name":"Albury Wodonga Health [Wodonga Campus]","phone_number":"02 6051 7111","website":null,"state":"Vic","long":146.879417,"postcode":3690,"bed_cat":3,"id":10,"beds":"100-199","suburb":"Wodonga","description":"Large regional hospital with an emergency department","ogc_fid":15,"street_address":"69 Vermont Street","lat":-36.131791},"id":"my_hospital_beds.15"},{"type":"Feature","geometry":{"type":"Point","coordinates":[146.883177,-36.075621]},"properties":{"sector":"Private","hospital_name":"Albury Wodonga Private Hospital","phone_number":"02 6041 1411","website":"www.alburywodongaprivate.com.au","state":"NSW","long":146.883177,"postcode":2640,"bed_cat":3,"id":11,"beds":"100-199","suburb":"West Albury","description":null,"ogc_fid":16,"street_address":"1125 Pemberton Street","lat":-36.075621},"id":"my_hospital_beds.16"},{"type":"Feature","geometry":{"type":"Point","coordinates":[145.716143,-37.195065]},"properties":{"sector":"Public","hospital_name":"Alexandra District Hospital","phone_number":"03 5772 0900","website":null,"state":"Vic","long":145.716143,"postcode":3714,"bed_cat":1,"id":12,"beds":"<50","suburb":"Alexandra","description":"Small regional hospital with emergency services","ogc_fid":17,"street_address":"20 Cooper Street","lat":-37.195065},"id":"my_hospital_beds.17"},{"type":"Feature","geometry":{"type":"Point","coordinates":[133.878064,-23.705758]},"properties":{"sector":"Public","hospital_name":"Alice Springs Hospital","phone_number":"08 8951 7777","website":"www.health.nt.gov.au\/Hospitals\/Alice_Springs_Hospital\/index.aspx","state":"NT","long":133.878064,"postcode":870,"bed_cat":3,"id":13,"beds":"100-199","suburb":"Alice Springs","description":"Major regional hospital with an emergency department","ogc_fid":18,"street_address":"6 Gap Road","lat":-23.705758},"id":"my_hospital_beds.18"},{"type":"Feature","geometry":{"type":"Point","coordinates":[153.407729,-27.972689]},"properties":{"sector":"Private","hospital_name":"Allamanda Private Hospital","phone_number":"07 5532 6444","website":"www.allamandaprivatehospital.com.au\/","state":"Qld","long":153.407729,"postcode":4215,"bed_cat":4,"id":14,"beds":"200-500","suburb":"Southport","description":null,"ogc_fid":19,"street_address":"PO Box 927 (150 Queen Street)","lat":-27.972689},"id":"my_hospital_beds.19"},{"type":"Feature","geometry":{"type":"Point","coordinates":[151.06387,-33.791787]},"properties":{"sector":"Private","hospital_name":"Allowah Presbyterian Children''s Hospital","phone_number":"02 9858 4994","website":"www.allowah.org.au","state":"NSW","long":151.06387,"postcode":2117,"bed_cat":1,"id":15,"beds":"<50","suburb":"Dundas","description":null,"ogc_fid":20,"street_address":"8 Perry Street","lat":-33.791787},"id":"my_hospital_beds.20"},{"type":"Feature","geometry":{"type":"Point","coordinates":[146.636699,-23.655197]},"properties":{"sector":"Public","hospital_name":"Alpha Hospital","phone_number":"07 4987 0700","website":"www.health.qld.gov.au\/services\/centralwest\/cwest_alpha_hosp.asp","state":"Qld","long":146.636699,"postcode":4724,"bed_cat":1,"id":16,"beds":"<50","suburb":"Alpha","description":"Small regional hospital with emergency services","ogc_fid":21,"street_address":"Gordon Street","lat":-23.655197},"id":"my_hospital_beds.21"},{"type":"Feature","geometry":{"type":"Point","coordinates":[146.965924,-36.732701]},"properties":{"sector":"Public","hospital_name":"Alpine Health [Bright]","phone_number":"03 5755 0100","website":"www.alpinehealth.org.au","state":"Vic","long":146.965924,"postcode":3741,"bed_cat":1,"id":17,"beds":"<50","suburb":"Bright","description":"Small regional hospital with emergency services","ogc_fid":22,"street_address":"36-42 Cobden Street","lat":-36.732701},"id":"my_hospital_beds.22"},{"type":"Feature","geometry":{"type":"Point","coordinates":[147.169359,-36.743354]},"properties":{"sector":"Public","hospital_name":"Alpine Health [Mount Beauty]","phone_number":"03 5754 3500","website":"www.alpinehealth.org.au","state":"Vic","long":147.169359,"postcode":3699,"bed_cat":1,"id":18,"beds":"<50","suburb":"Mt Beauty","description":"Small regional hospital with emergency services","ogc_fid":23,"street_address":"10 Hollonds Street","lat":-36.743354},"id":"my_hospital_beds.23"},{"type":"Feature","geometry":{"type":"Point","coordinates":[146.728795,-36.554525000000005]},"properties":{"sector":"Public","hospital_name":"Alpine Health [Myrtleford]","phone_number":"03 5751 9300","website":"www.alpinehealth.org.au","state":"Vic","long":146.728795,"postcode":3736,"bed_cat":1,"id":19,"beds":"<50","suburb":"Myrtleford","description":"Small regional hospital with emergency services","ogc_fid":24,"street_address":"30 O''Donnell Avenue","lat":-36.554525},"id":"my_hospital_beds.24"},{"type":"Feature","geometry":{"type":"Point","coordinates":[137.168255,-30.442466999999997]},"properties":{"sector":"Public","hospital_name":"Andamooka Outpost Hospital","phone_number":null,"website":null,"state":"SA","long":137.168255,"postcode":5722,"bed_cat":1,"id":20,"beds":"<50","suburb":"Andamooka","description":"Regional hospital","ogc_fid":25,"street_address":"Opal Field","lat":-30.442467},"id":"my_hospital_beds.25"},{"type":"Feature","geometry":{"type":"Point","coordinates":[139.054715,-34.503549]},"properties":{"sector":"Public","hospital_name":"Angaston District Hospital","phone_number":"08 8563 8500","website":"www.sahealth.sa.gov.au\/wps\/wcm\/connect\/public+content\/sa+health+internet\/health+services\/hospitals+and+health+services+-+country+south+australia\/barossa+hospitals+and+health+services\/angaston+hospital","state":"SA","long":139.054715,"postcode":5353,"bed_cat":1,"id":21,"beds":"<50","suburb":"Angaston","description":"Small regional hospital with emergency services","ogc_fid":26,"street_address":"29 North Street","lat":-34.503549},"id":"my_hospital_beds.26"},{"type":"Feature","geometry":{"type":"Point","coordinates":[145.314166,-37.898663]},"properties":{"sector":"Public","hospital_name":"Angliss Hospital","phone_number":"03 9764 6111","website":"www.easternhealth.org.au","state":"Vic","long":145.314166,"postcode":3156,"bed_cat":3,"id":22,"beds":"100-199","suburb":"Upper Ferntree Gully","description":"Large metropolitan hospital with an emergency department","ogc_fid":27,"street_address":"Albert Street","lat":-37.898663},"id":"my_hospital_beds.27"},{"type":"Feature","geometry":{"type":"Point","coordinates":[145.244879,-22.966444]},"properties":{"sector":"Public","hospital_name":"Aramac Primary Healthcare Centre","phone_number":"07 4652 9000","website":"www.health.qld.gov.au\/services\/centralwest\/cwest_aramac_hosp.asp","state":"Qld","long":145.244879,"postcode":4726,"bed_cat":1,"id":23,"beds":"<50","suburb":"Aramac","description":"Regional hospital with emergency services","ogc_fid":28,"street_address":"Lodge Street","lat":-22.966444},"id":"my_hospital_beds.28"},{"type":"Feature","geometry":{"type":"Point","coordinates":[116.020023,-32.133212]},"properties":{"sector":"Public","hospital_name":"Armadale-Kelmscott Memorial Hospital","phone_number":"08 9391 2000","website":"www.health.wa.gov.au\/services\/detail.cfm?Unit_ID=6","state":"WA","long":116.020023,"postcode":6112,"bed_cat":4,"id":24,"beds":"200-500","suburb":"Armadale","description":"Large metropolitan hospital with an emergency department","ogc_fid":29,"street_address":"3056 Albany Highway","lat":-32.133212},"id":"my_hospital_beds.29"},{"type":"Feature","geometry":{"type":"Point","coordinates":[151.655629,-30.512726]},"properties":{"sector":"Public","hospital_name":"Armidale Hospital","phone_number":"02 6776 9500","website":null,"state":"NSW","long":151.655629,"postcode":2350,"bed_cat":2,"id":25,"beds":"50-99","suburb":"Armidale","description":"Medium-sized regional hospital with an emergency department","ogc_fid":30,"street_address":"226 Rusden Street","lat":-30.512726},"id":"my_hospital_beds.30"},{"type":"Feature","geometry":{"type":"Point","coordinates":[151.654565,-30.512718999999997]},"properties":{"sector":"Private","hospital_name":"Armidale Private Hospital","phone_number":"02 6771 4000","website":null,"state":"NSW","long":151.654565,"postcode":2350,"bed_cat":1,"id":26,"beds":"<50","suburb":"Armidale","description":null,"ogc_fid":31,"street_address":"Rusden Street","lat":-30.512719},"id":"my_hospital_beds.31"},{"type":"Feature","geometry":{"type":"Point","coordinates":[138.576725,-34.948142]},"properties":{"sector":"Private","hospital_name":"Ashford Hospital","phone_number":"08 8375 5222","website":"www.ashfordhospital.org.au","state":"SA","long":138.576725,"postcode":5035,"bed_cat":4,"id":27,"beds":"200-500","suburb":"Ashford","description":null,"ogc_fid":32,"street_address":"55 Anzac Highway","lat":-34.948142},"id":"my_hospital_beds.32"},{"type":"Feature","geometry":{"type":"Point","coordinates":[145.48317700000004,-17.266635]},"properties":{"sector":"Public","hospital_name":"Atherton Hospital","phone_number":"07 4091 0211","website":"www.health.qld.gov.au\/services\/cairns-hinterland\/cairns_ath_hosp.asp","state":"Qld","long":145.483177,"postcode":4883,"bed_cat":1,"id":28,"beds":"<50","suburb":"Atherton","description":"Medium-sized regional hospital with emergency services","ogc_fid":33,"street_address":"Corner of Louise and Jack Streets","lat":-17.266635},"id":"my_hospital_beds.33"},{"type":"Feature","geometry":{"type":"Point","coordinates":[115.81066899999999,-32.029729]},"properties":{"sector":"Private","hospital_name":"Attadale Private Hospital","phone_number":"08 9330 1000","website":"www.attadaleprivate.com.au","state":"WA","long":115.810669,"postcode":6156,"bed_cat":1,"id":29,"beds":"<50","suburb":"Attadale","description":null,"ogc_fid":34,"street_address":"21 Hislop Road","lat":-32.029729},"id":"my_hospital_beds.34"},{"type":"Feature","geometry":{"type":"Point","coordinates":[145.0568,-37.96046]},"properties":{"sector":"Private","hospital_name":"Chesterville Day Hospital","phone_number":"03 9585 3777","website":"www.curagroup.com.au","state":"Vic","long":145.0568,"postcode":3192,"bed_cat":1,"id":187,"beds":"<50","suburb":"Cheltenham","description":null,"ogc_fid":35,"street_address":"28 Chesterville Road","lat":-37.96046},"id":"my_hospital_beds.35"},{"type":"Feature","geometry":{"type":"Point","coordinates":[151.033204,-33.859867]},"properties":{"sector":"Public","hospital_name":"Auburn Hospital","phone_number":"02 8759 3000","website":"www.wslhd.health.nsw.gov.au\/Auburn-Hospital","state":"NSW","long":151.033204,"postcode":2144,"bed_cat":3,"id":30,"beds":"100-199","suburb":"Auburn","description":"Large metropolitan hospital with an emergency department","ogc_fid":36,"street_address":"18-20 Hargrave Road","lat":-33.859867},"id":"my_hospital_beds.36"},{"type":"Feature","geometry":{"type":"Point","coordinates":[146.590919,-25.796104]},"properties":{"sector":"Public","hospital_name":"Augathella Hospital","phone_number":"07 4656 7100","website":"www.health.qld.gov.au\/services\/southwest\/swest_auga_hosp.asp","state":"Qld","long":146.590919,"postcode":4477,"bed_cat":1,"id":31,"beds":"<50","suburb":"Augathella","description":"Small regional hospital with emergency services","ogc_fid":37,"street_address":"Cavanagh Street","lat":-25.796104},"id":"my_hospital_beds.37"},{"type":"Feature","geometry":{"type":"Point","coordinates":[115.157983,-34.305814]},"properties":{"sector":"Public","hospital_name":"Augusta Hospital","phone_number":"08 9758 3222","website":"www.health.wa.gov.au\/services\/detail.cfm?Unit_ID=10","state":"WA","long":115.157983,"postcode":6290,"bed_cat":1,"id":32,"beds":"<50","suburb":"Augusta","description":"Small regional hospital with emergency services","ogc_fid":38,"street_address":"Donovan Street","lat":-34.305814},"id":"my_hospital_beds.38"},{"type":"Feature","geometry":{"type":"Point","coordinates":[141.729383,-13.352961000000002]},"properties":{"sector":"Public","hospital_name":"Aurukun Primary Health Care Centre","phone_number":"07 4060 6133","website":"www.health.qld.gov.au\/services\/capeyork\/capeyork_auruk_phcc.asp","state":"Qld","long":141.729383,"postcode":4871,"bed_cat":1,"id":33,"beds":"<50","suburb":"Aurukun","description":"Small regional hospital with emergency services","ogc_fid":39,"street_address":"Kang Kang Road","lat":-13.352961},"id":"my_hospital_beds.39"},{"type":"Feature","geometry":{"type":"Point","coordinates":[145.060236,-37.756355]},"properties":{"sector":"Public","hospital_name":"Austin Hospital [Heidelberg]","phone_number":"03 9496 5000","website":"www.austin.org.au","state":"Vic","long":145.060236,"postcode":3084,"bed_cat":5,"id":34,"beds":">500","suburb":"Heidelberg","description":"Major metropolitan hospital with an emergency department","ogc_fid":40,"street_address":"145 Studley Road","lat":-37.756355},"id":"my_hospital_beds.40"},{"type":"Feature","geometry":{"type":"Point","coordinates":[144.998213,-37.856118]},"properties":{"sector":"Private","hospital_name":"Avenue Plastic Surgery","phone_number":"03 9521 1777","website":"www.avenueplasticsurgery.com","state":"Vic","long":144.998213,"postcode":3181,"bed_cat":1,"id":35,"beds":"<50","suburb":"Windsor","description":null,"ogc_fid":41,"street_address":"20 The Avenue","lat":-37.856118},"id":"my_hospital_beds.41"},{"type":"Feature","geometry":{"type":"Point","coordinates":[147.408821,-19.564066]},"properties":{"sector":"Public","hospital_name":"Ayr Hospital","phone_number":"07 4783 0855","website":"www.health.qld.gov.au\/services\/townsville\/tville_ayr_hosp.asp","state":"Qld","long":147.408821,"postcode":4807,"bed_cat":1,"id":36,"beds":"<50","suburb":"Ayr","description":"Small regional hospital with emergency services","ogc_fid":42,"street_address":"2 Chippendale Street","lat":-19.564066},"id":"my_hospital_beds.42"},{"type":"Feature","geometry":{"type":"Point","coordinates":[145.918908,-17.343079]},"properties":{"sector":"Public","hospital_name":"Babinda Hospital","phone_number":"07 4067 8200","website":"www.health.qld.gov.au\/services\/cairns-hinterland\/cairns_babin_hosp.asp","state":"Qld","long":145.918908,"postcode":4861,"bed_cat":1,"id":37,"beds":"<50","suburb":"Babinda","description":"Small regional hospital with emergency services","ogc_fid":43,"street_address":"128 Munro Street","lat":-17.343079},"id":"my_hospital_beds.43"},{"type":"Feature","geometry":{"type":"Point","coordinates":[142.165682,-10.15809]},"properties":{"sector":"Public","hospital_name":"Badu Island Health Centre","phone_number":null,"website":"www.health.qld.gov.au\/services\/torresstrait-np","state":"Qld","long":142.165682,"postcode":4875,"bed_cat":null,"id":38,"beds":null,"suburb":"Badu Island","description":"Regional hospital","ogc_fid":44,"street_address":null,"lat":-10.15809},"id":"my_hospital_beds.44"},{"type":"Feature","geometry":{"type":"Point","coordinates":[151.936283,-27.524371]},"properties":{"sector":"Public","hospital_name":"Baillie Henderson Hospital","phone_number":"07 4699 8888","website":"www.health.qld.gov.au\/services\/darlingdowns\/ddowns-baillie-hosp.asp","state":"Qld","long":151.936283,"postcode":4350,"bed_cat":3,"id":39,"beds":"100-199","suburb":"Toowoomba","description":"Specialist psychiatric hospital","ogc_fid":45,"street_address":"Corner of Hogg and Tor Streets","lat":-27.524371},"id":"my_hospital_beds.45"},{"type":"Feature","geometry":{"type":"Point","coordinates":[147.607905,-37.830814]},"properties":{"sector":"Public","hospital_name":"Bairnsdale Regional Health Service","phone_number":"03 5150 3333","website":null,"state":"Vic","long":147.607905,"postcode":3875,"bed_cat":2,"id":40,"beds":"50-99","suburb":"Bairnsdale","description":"Large regional hospital with an emergency department","ogc_fid":46,"street_address":"122 Day Street","lat":-37.830814},"id":"my_hospital_beds.46"},{"type":"Feature","geometry":{"type":"Point","coordinates":[138.419596,-34.139594]},"properties":{"sector":"Public","hospital_name":"Balaklava Soldiers Memorial District Hospital","phone_number":"08 8862 1400","website":"www.sahealth.sa.gov.au\/wps\/wcm\/connect\/public+content\/sa+health+internet\/health+services\/hospitals+and+health+services+-+country+south+australia\/yorke+and+mid+north+hospitals+and+health+services\/balaklava+hospital+and+health+services","state":"SA","long":138.419596,"postcode":5461,"bed_cat":1,"id":41,"beds":"<50","suburb":"Balaklava","description":"Small regional hospital with emergency services","ogc_fid":47,"street_address":"16 War Memorial Drive","lat":-34.139594},"id":"my_hospital_beds.47"},{"type":"Feature","geometry":{"type":"Point","coordinates":[143.847041,-37.559658]},"properties":{"sector":"Public","hospital_name":"Ballarat Health Services [Base Campus]","phone_number":"03 5320 4000","website":"www.bhs.org.au","state":"Vic","long":143.847041,"postcode":3350,"bed_cat":4,"id":42,"beds":"200-500","suburb":"Ballarat Central","description":"Major regional hospital with an emergency department","ogc_fid":48,"street_address":"1 Dummond Street North","lat":-37.559658},"id":"my_hospital_beds.48"},{"type":"Feature","geometry":{"type":"Point","coordinates":[143.843264,-37.564276]},"properties":{"sector":"Public","hospital_name":"Ballarat Health Services [Queen Elizabeth Campus]","phone_number":"03 5320 3700","website":"www.bhs.org.au","state":"Vic","long":143.843264,"postcode":3350,"bed_cat":2,"id":43,"beds":"50-99","suburb":"Ballarat","description":"Regional hospital","ogc_fid":49,"street_address":"102 Ascot Street","lat":-37.564276},"id":"my_hospital_beds.49"},{"type":"Feature","geometry":{"type":"Point","coordinates":[153.563241,-28.870710999999996]},"properties":{"sector":"Private","hospital_name":"Ballina Day Surgery","phone_number":"02 6681 9999","website":null,"state":"NSW","long":153.563241,"postcode":2478,"bed_cat":1,"id":44,"beds":"<50","suburb":"Ballina","description":null,"ogc_fid":50,"street_address":"Suite 6, 46 Tamar Street","lat":-28.870711},"id":"my_hospital_beds.50"},{"type":"Feature","geometry":{"type":"Point","coordinates":[153.564013,-28.863525]},"properties":{"sector":"Public","hospital_name":"Ballina Hospital","phone_number":"02 6686 2111","website":null,"state":"NSW","long":153.564013,"postcode":2478,"bed_cat":2,"id":45,"beds":"50-99","suburb":"Ballina","description":"Medium-sized regional hospital with an emergency department","ogc_fid":51,"street_address":"78-92 Cherry Street","lat":-28.863525},"id":"my_hospital_beds.51"},{"type":"Feature","geometry":{"type":"Point","coordinates":[151.181469,-33.859469]},"properties":{"sector":"Public","hospital_name":"Balmain Hospital","phone_number":"02 9395 2111","website":"www.sswahs.nsw.gov.au\/balmain\/default.html","state":"NSW","long":151.181469,"postcode":2041,"bed_cat":2,"id":46,"beds":"50-99","suburb":"Balmain","description":"Small metropolitan hospital with emergency services","ogc_fid":52,"street_address":"29 Booth Street","lat":-33.859469},"id":"my_hospital_beds.52"},{"type":"Feature","geometry":{"type":"Point","coordinates":[143.568413,-34.644549]},"properties":{"sector":"Public","hospital_name":"Balranald Multi Purpose Service","phone_number":"03 5020 1606","website":null,"state":"NSW","long":143.568413,"postcode":2715,"bed_cat":1,"id":47,"beds":"<50","suburb":"Balranald","description":"Small regional hospital with an emergency department","ogc_fid":53,"street_address":"41-43 Court Street","lat":-34.644549},"id":"my_hospital_beds.53"},{"type":"Feature","geometry":{"type":"Point","coordinates":[142.385131,-10.893996]},"properties":{"sector":"Public","hospital_name":"Bamaga Hospital","phone_number":"07 4069 3166","website":"www.health.qld.gov.au\/services\/torresstrait-np\/torres_bamaga_hosp.asp","state":"Qld","long":142.385131,"postcode":4876,"bed_cat":1,"id":48,"beds":"<50","suburb":"Bamaga","description":"Small regional hospital with emergency services","ogc_fid":54,"street_address":"Sagaukaz Street","lat":-10.893996},"id":"my_hospital_beds.54"},{"type":"Feature","geometry":{"type":"Point","coordinates":[151.020823,-33.933088]},"properties":{"sector":"Public","hospital_name":"Bankstown Lidcombe Hospital","phone_number":"02 9722 8000","website":"www.sswahs.nsw.gov.au\/bankstown","state":"NSW","long":151.020823,"postcode":2200,"bed_cat":4,"id":49,"beds":"200-500","suburb":"Bankstown","description":"Major metropolitan hospital with an emergency department","ogc_fid":55,"street_address":"68 Eldridge Road","lat":-33.933088},"id":"my_hospital_beds.55"},{"type":"Feature","geometry":{"type":"Point","coordinates":[149.066189,-30.945316]},"properties":{"sector":"Public","hospital_name":"Baradine Multi Purpose Service","phone_number":"02 6843 1909","website":null,"state":"NSW","long":149.066189,"postcode":2396,"bed_cat":1,"id":50,"beds":"<50","suburb":"Baradine","description":"Small regional hospital with an emergency department","ogc_fid":56,"street_address":"5-9 Macquarie Street","lat":-30.945316},"id":"my_hospital_beds.56"},{"type":"Feature","geometry":{"type":"Point","coordinates":[149.80958600000002,-24.184268]},"properties":{"sector":"Public","hospital_name":"Baralaba Hospital","phone_number":"07 4998 2800","website":"www.health.qld.gov.au\/services\/central-queensland\/baralaba.asp","state":"Qld","long":149.809586,"postcode":4702,"bed_cat":1,"id":51,"beds":"<50","suburb":"Baralaba","description":"Small regional hospital with emergency services","ogc_fid":57,"street_address":"Stopford Street","lat":-24.184268},"id":"my_hospital_beds.57"},{"type":"Feature","geometry":{"type":"Point","coordinates":[145.293674,-23.553316]},"properties":{"sector":"Public","hospital_name":"Barcaldine Hospital","phone_number":"07 4650 4000","website":"www.health.qld.gov.au\/services\/centralwest\/cwest_barc_hosp.asp","state":"Qld","long":145.293674,"postcode":4725,"bed_cat":1,"id":52,"beds":"<50","suburb":"Barcaldine","description":"Small regional hospital with emergency services","ogc_fid":58,"street_address":"Oak Street","lat":-23.553316},"id":"my_hospital_beds.58"},{"type":"Feature","geometry":{"type":"Point","coordinates":[144.133479,-35.623823]},"properties":{"sector":"Public","hospital_name":"Barham Hospital","phone_number":"03 5451 1000","website":null,"state":"NSW","long":144.133479,"postcode":2732,"bed_cat":1,"id":53,"beds":"<50","suburb":"Barham","description":"Small regional hospital with an emergency department","ogc_fid":59,"street_address":"70 Punt Road","lat":-35.623823},"id":"my_hospital_beds.59"},{"type":"Feature","geometry":{"type":"Point","coordinates":[153.102893,-30.278813]},"properties":{"sector":"Private","hospital_name":"Baringa Private Hospital","phone_number":"02 6659 4444","website":"www.baringaprivate.com.au","state":"NSW","long":153.102893,"postcode":2450,"bed_cat":2,"id":54,"beds":"50-99","suburb":"Coffs Harbour","description":null,"ogc_fid":60,"street_address":"31 Mackays Road","lat":-30.278813},"id":"my_hospital_beds.60"},{"type":"Feature","geometry":{"type":"Point","coordinates":[140.471706,-34.249146]},"properties":{"sector":"Public","hospital_name":"Barmera Health Service","phone_number":"08 8588 0400","website":"www.sahealth.sa.gov.au\/wps\/wcm\/connect\/public+content\/sa+health+internet\/health+services\/hospitals+and+health+services+-+country+south+australia\/murray+mallee+hospitals+and+health+services\/barmera+hospital","state":"SA","long":140.471706,"postcode":5345,"bed_cat":1,"id":55,"beds":"<50","suburb":"Barmera","description":"Small regional hospital with emergency services","ogc_fid":61,"street_address":"Hawdon Street","lat":-34.249146},"id":"my_hospital_beds.61"},{"type":"Feature","geometry":{"type":"Point","coordinates":[150.605778,-30.382482]},"properties":{"sector":"Public","hospital_name":"Barraba Multi Purpose Service","phone_number":"02 6782 2500","website":null,"state":"NSW","long":150.605778,"postcode":2347,"bed_cat":1,"id":56,"beds":"<50","suburb":"Barraba","description":"Small regional hospital with an emergency department","ogc_fid":62,"street_address":"Edward Street","lat":-30.382482},"id":"my_hospital_beds.62"},{"type":"Feature","geometry":{"type":"Point","coordinates":[145.580906,-38.608747]},"properties":{"sector":"Public","hospital_name":"Bass Coast Regional Health","phone_number":"03 5671 3333","website":"www.bcrh.com.au","state":"Vic","long":145.580906,"postcode":3995,"bed_cat":2,"id":57,"beds":"50-99","suburb":"Wonthaggi","description":"Medium-sized regional hospital with an emergency department","ogc_fid":63,"street_address":"235 Graham Street","lat":-38.608747},"id":"my_hospital_beds.63"},{"type":"Feature","geometry":{"type":"Point","coordinates":[150.182375,-35.714055]},"properties":{"sector":"Public","hospital_name":"Batemans Bay Hospital","phone_number":"02 4475 1500","website":null,"state":"NSW","long":150.182375,"postcode":2536,"bed_cat":1,"id":58,"beds":"<50","suburb":"Batemans Bay","description":"Medium-sized regional hospital with an emergency department","ogc_fid":64,"street_address":"7 Pacific Street","lat":-35.714055},"id":"my_hospital_beds.64"},{"type":"Feature","geometry":{"type":"Point","coordinates":[149.572699,-33.406512]},"properties":{"sector":"Public","hospital_name":"Bathurst Hospital","phone_number":"02 6330 5311","website":null,"state":"NSW","long":149.572699,"postcode":2795,"bed_cat":3,"id":59,"beds":"100-199","suburb":"Bathurst","description":"Large regional hospital with an emergency department","ogc_fid":65,"street_address":"361-365 Howick Street","lat":-33.406512},"id":"my_hospital_beds.65"},{"type":"Feature","geometry":{"type":"Point","coordinates":[149.589242,-33.435215]},"properties":{"sector":"Private","hospital_name":"Bathurst Private Hospital","phone_number":"02 6331 7766","website":"www.bathurstprivate.com.au","state":"NSW","long":149.589242,"postcode":2795,"bed_cat":1,"id":60,"beds":"<50","suburb":"Bathurst","description":null,"ogc_fid":66,"street_address":"Gorman''s Hill Road","lat":-33.435215},"id":"my_hospital_beds.66"},{"type":"Feature","geometry":{"type":"Point","coordinates":[148.147891,-35.521951]},"properties":{"sector":"Public","hospital_name":"Batlow\/Adelong Multi Purpose Service","phone_number":"02 6941 4333","website":null,"state":"NSW","long":148.147891,"postcode":2730,"bed_cat":1,"id":61,"beds":"<50","suburb":"Batlow","description":"Small regional hospital with an emergency department","ogc_fid":67,"street_address":"61-81 Pioneer Street","lat":-35.521951},"id":"my_hospital_beds.67"},{"type":"Feature","geometry":{"type":"Point","coordinates":[146.806719,-41.193478]},"properties":{"sector":"Public","hospital_name":"Beaconsfield District Health Service","phone_number":"03 6383 6200","website":"www.dhhs.tas.gov.au\/service_information\/service_delivery_points\/beaconsfield_district_health_service","state":"Tas","long":146.806719,"postcode":7270,"bed_cat":1,"id":62,"beds":"<50","suburb":"Beaconsfield","description":"Regional hospital","ogc_fid":68,"street_address":"13 Bolton Street","lat":-41.193478},"id":"my_hospital_beds.68"},{"type":"Feature","geometry":{"type":"Point","coordinates":[153.002536,-27.984869]},"properties":{"sector":"Public","hospital_name":"Beaudesert Hospital","phone_number":"07 5541 9111","website":"www.health.qld.gov.au\/services\/metrosouth\/beau-hosp.asp","state":"Qld","long":153.002536,"postcode":4285,"bed_cat":1,"id":63,"beds":"<50","suburb":"Beaudesert","description":"Small regional hospital with emergency services","ogc_fid":69,"street_address":"64 Tina Street","lat":-27.984869},"id":"my_hospital_beds.69"},{"type":"Feature","geometry":{"type":"Point","coordinates":[143.382284,-37.431028]},"properties":{"sector":"Public","hospital_name":"Beaufort & Skipton Health Service [Beaufort]","phone_number":"03 5349 1600","website":"www.bashs.org.au\/BeaufortCampus\/index.aspx","state":"Vic","long":143.382284,"postcode":3373,"bed_cat":1,"id":64,"beds":"<50","suburb":"Beaufort","description":"Small regional hospital with emergency services","ogc_fid":70,"street_address":"28 Havelock Street","lat":-37.431028},"id":"my_hospital_beds.70"},{"type":"Feature","geometry":{"type":"Point","coordinates":[143.367547,-37.683998]},"properties":{"sector":"Public","hospital_name":"Beaufort & Skipton Health Service [Skipton]","phone_number":"03 5340 1100","website":"www.bashs.org.au\/SkiptonCampus\/index.aspx","state":"Vic","long":143.367547,"postcode":3361,"bed_cat":1,"id":65,"beds":"<50","suburb":"Skipton","description":"Small regional hospital with emergency services","ogc_fid":71,"street_address":"Blake Street","lat":-37.683998},"id":"my_hospital_beds.71"},{"type":"Feature","geometry":{"type":"Point","coordinates":[146.690739,-36.349359]},"properties":{"sector":"Public","hospital_name":"Beechworth Health Service","phone_number":"03 5728 0200","website":"www.beechworthhealthservice.com.au","state":"Vic","long":146.690739,"postcode":3747,"bed_cat":1,"id":66,"beds":"<50","suburb":"Beechworth","description":"Small regional hospital with emergency services","ogc_fid":72,"street_address":"52 Sydney Road","lat":-36.349359},"id":"my_hospital_beds.72"},{"type":"Feature","geometry":{"type":"Point","coordinates":[149.837103,-36.68068400000001]},"properties":{"sector":"Public","hospital_name":"Bega Hospital","phone_number":"02 6492 9111","website":null,"state":"NSW","long":149.837103,"postcode":2550,"bed_cat":2,"id":67,"beds":"50-99","suburb":"Bega","description":"Medium-sized regional hospital with an emergency department","ogc_fid":73,"street_address":"1 McKee Drive","lat":-36.680684},"id":"my_hospital_beds.73"},{"type":"Feature","geometry":{"type":"Point","coordinates":[149.845812,-36.673617]},"properties":{"sector":"Private","hospital_name":"Bega Valley Private Hospital","phone_number":"02 6492 4144","website":"www.pulsehealth.net.au","state":"NSW","long":149.845812,"postcode":2550,"bed_cat":1,"id":68,"beds":"<50","suburb":"Bega","description":null,"ogc_fid":74,"street_address":"31 Parker Street","lat":-36.673617},"id":"my_hospital_beds.74"},{"type":"Feature","geometry":{"type":"Point","coordinates":[145.049136,-38.225484]},"properties":{"sector":"Private","hospital_name":"Beleura Private Hospital","phone_number":"03 5976 0888","website":"www.beleuraprivate.com.au","state":"Vic","long":145.049136,"postcode":3931,"bed_cat":3,"id":69,"beds":"100-199","suburb":"Mornington","description":null,"ogc_fid":75,"street_address":"925 Nepean Highway","lat":-38.225484},"id":"my_hospital_beds.75"},{"type":"Feature","geometry":{"type":"Point","coordinates":[145.156018,-37.833073]},"properties":{"sector":"Private","hospital_name":"Bellbird Private Hospital","phone_number":"03 9845 2333","website":"www.bellbirdprivatehospital.com.au","state":"Vic","long":145.156018,"postcode":3130,"bed_cat":1,"id":70,"beds":"<50","suburb":"Blackburn South","description":null,"ogc_fid":76,"street_address":"198 Canterbury Road","lat":-37.833073},"id":"my_hospital_beds.76"},{"type":"Feature","geometry":{"type":"Point","coordinates":[152.893209,-30.457256000000005]},"properties":{"sector":"Public","hospital_name":"Bellinger River District Hospital","phone_number":"02 6659 5800","website":null,"state":"NSW","long":152.893209,"postcode":2454,"bed_cat":1,"id":71,"beds":"<50","suburb":"Bellingen","description":"Small regional hospital with an emergency department","ogc_fid":77,"street_address":"43 Church Street","lat":-30.457256},"id":"my_hospital_beds.77"},{"type":"Feature","geometry":{"type":"Point","coordinates":[151.648181,-33.024631]},"properties":{"sector":"Public","hospital_name":"Belmont Hospital","phone_number":"02 4923 2000","website":null,"state":"NSW","long":151.648181,"postcode":2280,"bed_cat":2,"id":72,"beds":"50-99","suburb":"Belmont","description":"Medium-sized metropolitan hospital with an emergency department","ogc_fid":78,"street_address":"16 Croudace Bay Road","lat":-33.024631},"id":"my_hospital_beds.78"},{"type":"Feature","geometry":{"type":"Point","coordinates":[145.99467500000003,-36.555239]},"properties":{"sector":"Public","hospital_name":"Benalla & District Memorial Hospital","phone_number":"03 5760 2222","website":"www.benallahospital.com.au","state":"Vic","long":145.994675,"postcode":3672,"bed_cat":2,"id":73,"beds":"50-99","suburb":"Benalla","description":"Medium-sized regional hospital with emergency services","ogc_fid":79,"street_address":"45-53 Coster Street","lat":-36.555239},"id":"my_hospital_beds.79"},{"type":"Feature","geometry":{"type":"Point","coordinates":[144.280399,-36.750919]},"properties":{"sector":"Public","hospital_name":"Bendigo Health Care Group [Anne Caudle]","phone_number":"03 5454 6000","website":"www.bendigohealth.com.au","state":"Vic","long":144.280399,"postcode":3550,"bed_cat":2,"id":74,"beds":"50-99","suburb":"Bendigo","description":"Regional hospital","ogc_fid":80,"street_address":"100 Barnard Street","lat":-36.750919},"id":"my_hospital_beds.80"},{"type":"Feature","geometry":{"type":"Point","coordinates":[115.927922,-32.005332]},"properties":{"sector":"Public","hospital_name":"Bentley Hospital","phone_number":"08 9334 3666","website":"www.health.wa.gov.au\/services\/detail.cfm?Unit_ID=16","state":"WA","long":115.927922,"postcode":6102,"bed_cat":3,"id":75,"beds":"100-199","suburb":"Bentley","description":"Medium-sized metropolitan hospital","ogc_fid":81,"street_address":"18-56 Mills Street","lat":-32.005332},"id":"my_hospital_beds.81"},{"type":"Feature","geometry":{"type":"Point","coordinates":[151.432784,-33.337061]},"properties":{"sector":"Private","hospital_name":"Berkeley Vale Private Hospital","phone_number":"02 4389 9100","website":"www.berkeleyvaleprivate.com.au","state":"NSW","long":151.432784,"postcode":2261,"bed_cat":2,"id":76,"beds":"50-99","suburb":"Berkeley Vale","description":null,"ogc_fid":82,"street_address":"Lorraine Avenue","lat":-33.337061},"id":"my_hospital_beds.82"},{"type":"Feature","geometry":{"type":"Point","coordinates":[145.813035,-35.662312]},"properties":{"sector":"Public","hospital_name":"Berrigan Multi Purpose Service","phone_number":"03 5888 5300","website":null,"state":"NSW","long":145.813035,"postcode":2712,"bed_cat":1,"id":77,"beds":"<50","suburb":"Berrigan","description":"Small regional hospital with an emergency department","ogc_fid":83,"street_address":"137-143 Memorial Place","lat":-35.662312},"id":"my_hospital_beds.83"},{"type":"Feature","geometry":{"type":"Point","coordinates":[145.346487,-38.033667]},"properties":{"sector":"Private","hospital_name":"Berwick Eye and Surgicentre","phone_number":"03 9768 9210","website":"www.berwickeye.com.au","state":"Vic","long":145.346487,"postcode":3806,"bed_cat":1,"id":78,"beds":"<50","suburb":"Berwick","description":null,"ogc_fid":84,"street_address":"22 Langmore Lane","lat":-38.033667},"id":"my_hospital_beds.84"},{"type":"Feature","geometry":{"type":"Point","coordinates":[115.778484,-31.986967]},"properties":{"sector":"Private","hospital_name":"Bethesda Hospital","phone_number":"08 9340 6300","website":"www.bethesda.asn.au","state":"WA","long":115.778484,"postcode":6010,"bed_cat":2,"id":79,"beds":"50-99","suburb":"Claremont","description":null,"ogc_fid":85,"street_address":"25 Queenslea Drive","lat":-31.986967},"id":"my_hospital_beds.85"},{"type":"Feature","geometry":{"type":"Point","coordinates":[116.92296200000001,-32.102825]},"properties":{"sector":"Public","hospital_name":"Beverley Hospital","phone_number":"08 9646 3200","website":"www.health.wa.gov.au\/services\/detail.cfm?Unit_ID=18","state":"WA","long":116.922962,"postcode":6304,"bed_cat":1,"id":80,"beds":"<50","suburb":"Beverley","description":"Small regional hospital with emergency services","ogc_fid":86,"street_address":"Sewell Street","lat":-32.102825},"id":"my_hospital_beds.86"},{"type":"Feature","geometry":{"type":"Point","coordinates":[152.051099,-25.506406]},"properties":{"sector":"Public","hospital_name":"Biggenden Hospital","phone_number":"07 4127 6400","website":"www.health.qld.gov.au\/services\/widebay\/wb-biggenden.asp","state":"Qld","long":152.051099,"postcode":4621,"bed_cat":1,"id":81,"beds":"<50","suburb":"Biggenden","description":"Small regional hospital with emergency services","ogc_fid":87,"street_address":"Alice Street","lat":-25.506406},"id":"my_hospital_beds.87"},{"type":"Feature","geometry":{"type":"Point","coordinates":[150.517491,-24.395813]},"properties":{"sector":"Public","hospital_name":"Biloela Hospital","phone_number":"07 4992 7000","website":"www.health.qld.gov.au\/services\/central-queensland\/biloela.asp","state":"Qld","long":150.517491,"postcode":4715,"bed_cat":1,"id":82,"beds":"<50","suburb":"Biloela","description":"Small regional hospital with emergency services","ogc_fid":88,"street_address":"2 Hospital Road","lat":-24.395813},"id":"my_hospital_beds.88"},{"type":"Feature","geometry":{"type":"Point","coordinates":[150.57923500000004,-29.864055000000004]},"properties":{"sector":"Public","hospital_name":"Bingara Multi Purpose Service","phone_number":"02 6728 0100","website":null,"state":"NSW","long":150.579235,"postcode":2404,"bed_cat":1,"id":83,"beds":"<50","suburb":"Bingara","description":"Small regional hospital with an emergency department","ogc_fid":89,"street_address":"Keera Street","lat":-29.864055},"id":"my_hospital_beds.89"},{"type":"Feature","geometry":{"type":"Point","coordinates":[145.449349,-24.422705]},"properties":{"sector":"Public","hospital_name":"Blackall Hospital","phone_number":"07 4650 7700","website":"www.health.qld.gov.au\/services\/centralwest\/cwest_blackall_hosp.asp","state":"Qld","long":145.449349,"postcode":4472,"bed_cat":1,"id":84,"beds":"<50","suburb":"Blackall","description":"Small regional hospital with emergency services","ogc_fid":90,"street_address":"Shamrock Street","lat":-24.422705},"id":"my_hospital_beds.90"},{"type":"Feature","geometry":{"type":"Point","coordinates":[150.917537,-33.775552]},"properties":{"sector":"Public","hospital_name":"Blacktown Hospital","phone_number":"02 9881 8000","website":"www.wslhd.health.nsw.gov.au\/Blacktown-and-Mt-Druitt-Hospital\/Blacktown-and-Mt-Druitt-Hospital","state":"NSW","long":150.917537,"postcode":2148,"bed_cat":4,"id":85,"beds":"200-500","suburb":"Blacktown","description":"Major metropolitan hospital with an emergency department","ogc_fid":91,"street_address":"Blacktown Road","lat":-33.775552},"id":"my_hospital_beds.91"},{"type":"Feature","geometry":{"type":"Point","coordinates":[148.878219,-23.571873]},"properties":{"sector":"Public","hospital_name":"Blackwater Hospital","phone_number":"07 4980 1800","website":"www.health.qld.gov.au\/services\/central-queensland\/blackwater.asp","state":"Qld","long":148.878219,"postcode":4717,"bed_cat":1,"id":86,"beds":"<50","suburb":"Blackwater","description":"Small regional hospital with emergency services","ogc_fid":92,"street_address":"Mackenzie Street","lat":-23.571873},"id":"my_hospital_beds.92"},{"type":"Feature","geometry":{"type":"Point","coordinates":[149.248988,-33.53772800000001]},"properties":{"sector":"Public","hospital_name":"Blayney Multi Purpose Service","phone_number":"02 6368 9000","website":null,"state":"NSW","long":149.248988,"postcode":2799,"bed_cat":1,"id":87,"beds":"<50","suburb":"Blayney","description":"Small regional hospital with an emergency department","ogc_fid":93,"street_address":"3 Osman Street","lat":-33.537728},"id":"my_hospital_beds.93"},{"type":"Feature","geometry":{"type":"Point","coordinates":[150.32111,-33.705329]},"properties":{"sector":"Public","hospital_name":"Blue Mountains Hospital","phone_number":"02 4784 6500","website":"www.nbmlhd.health.nsw.gov.au\/Blue-Mountains-Hospital","state":"NSW","long":150.32111,"postcode":2780,"bed_cat":2,"id":88,"beds":"50-99","suburb":"Katoomba","description":"Medium-sized metropolitan hospital with an emergency department","ogc_fid":94,"street_address":"Lot 3 Woodlands Road","lat":-33.705329},"id":"my_hospital_beds.94"},{"type":"Feature","geometry":{"type":"Point","coordinates":[116.47577400000002,-32.803715]},"properties":{"sector":"Public","hospital_name":"Boddington Hospital","phone_number":"08 9883 4444","website":"www.health.wa.gov.au\/services\/detail.cfm?Unit_ID=19","state":"WA","long":116.475774,"postcode":6390,"bed_cat":1,"id":89,"beds":"<50","suburb":"Boddington","description":"Small regional hospital with emergency services","ogc_fid":95,"street_address":"46-53 Hotham Avenue","lat":-32.803715},"id":"my_hospital_beds.95"},{"type":"Feature","geometry":{"type":"Point","coordinates":[150.040014,-30.711502000000003]},"properties":{"sector":"Public","hospital_name":"Boggabri Multi Purpose Service","phone_number":"02 6749 7000","website":null,"state":"NSW","long":150.040014,"postcode":2382,"bed_cat":1,"id":90,"beds":"<50","suburb":"Boggabri","description":"Small regional hospital with an emergency department","ogc_fid":96,"street_address":"3 Wee Waa Street","lat":-30.711502},"id":"my_hospital_beds.96"},{"type":"Feature","geometry":{"type":"Point","coordinates":[142.220764,-9.230628]},"properties":{"sector":"Public","hospital_name":"Boigu Island Health Centre","phone_number":null,"website":"www.health.qld.gov.au\/services\/torresstrait-np","state":"Qld","long":142.220764,"postcode":4875,"bed_cat":null,"id":91,"beds":null,"suburb":"Boigu Island","description":"Regional hospital","ogc_fid":97,"street_address":null,"lat":-9.230628},"id":"my_hospital_beds.97"},{"type":"Feature","geometry":{"type":"Point","coordinates":[147.478899,-28.031275000000004]},"properties":{"sector":"Public","hospital_name":"Bollon Outpatients Clinic","phone_number":"07 4625 6105","website":"www.health.qld.gov.au\/services\/southwest\/swest_bbush_ns.asp","state":"Qld","long":147.478899,"postcode":4488,"bed_cat":null,"id":92,"beds":null,"suburb":"Bollon","description":"Regional hospital","ogc_fid":98,"street_address":"Main Street","lat":-28.031275},"id":"my_hospital_beds.98"},{"type":"Feature","geometry":{"type":"Point","coordinates":[149.235372,-36.917513]},"properties":{"sector":"Public","hospital_name":"Bombala Multi Purpose Service","phone_number":"02 6458 5777","website":null,"state":"NSW","long":149.235372,"postcode":2632,"bed_cat":1,"id":93,"beds":"<50","suburb":"Bombala","description":"Small regional hospital with an emergency department","ogc_fid":99,"street_address":"126-128 Wellington Street","lat":-36.917513},"id":"my_hospital_beds.99"},{"type":"Feature","geometry":{"type":"Point","coordinates":[152.622789,-28.733777]},"properties":{"sector":"Public","hospital_name":"Bonalbo Hospital","phone_number":"02 6665 1203","website":null,"state":"NSW","long":152.622789,"postcode":2469,"bed_cat":1,"id":94,"beds":"<50","suburb":"Bonalbo","description":"Small regional hospital with emergency services","ogc_fid":100,"street_address":"Clarence Way","lat":-28.733777},"id":"my_hospital_beds.100"},{"type":"Feature","geometry":{"type":"Point","coordinates":[138.350958,-32.877911]},"properties":{"sector":"Public","hospital_name":"Booleroo Centre District Hospital and Health Services","phone_number":"08 8667 2211","website":"www.sahealth.sa.gov.au\/wps\/wcm\/connect\/public+content\/sa+health+internet\/health+services\/hospitals+and+health+services+-+country+south+australia\/yorke+and+mid+north+hospitals+and+health+services\/booleroo+campus","state":"SA","long":138.350958,"postcode":5482,"bed_cat":1,"id":95,"beds":"<50","suburb":"Booleroo Centre","description":"Small regional hospital with emergency services","ogc_fid":101,"street_address":"Stephens Street","lat":-32.877911},"id":"my_hospital_beds.101"},{"type":"Feature","geometry":{"type":"Point","coordinates":[152.678943,-27.999128]},"properties":{"sector":"Public","hospital_name":"Boonah Hospital","phone_number":"07 5463 3300","website":"www.health.qld.gov.au\/services\/westmoreton\/boonah-hs.asp","state":"Qld","long":152.678943,"postcode":4310,"bed_cat":1,"id":96,"beds":"<50","suburb":"Boonah","description":"Small regional hospital with emergency services","ogc_fid":102,"street_address":"11-17 Leonard Street","lat":-27.999128},"id":"my_hospital_beds.102"},{"type":"Feature","geometry":{"type":"Point","coordinates":[148.727073,-34.442822]},"properties":{"sector":"Public","hospital_name":"Boorowa Multi Purpose Service","phone_number":"02 6385 3004","website":null,"state":"NSW","long":148.727073,"postcode":2586,"bed_cat":1,"id":97,"beds":"<50","suburb":"Boorowa","description":"Small regional hospital with an emergency department","ogc_fid":103,"street_address":"62-80 Dry Street","lat":-34.442822},"id":"my_hospital_beds.103"},{"type":"Feature","geometry":{"type":"Point","coordinates":[143.727285,-36.111703]},"properties":{"sector":"Public","hospital_name":"Boort District Health","phone_number":"03 5451 5200","website":"www.bdh.vic.gov.au","state":"Vic","long":143.727285,"postcode":3537,"bed_cat":1,"id":98,"beds":"<50","suburb":"Boort","description":"Small regional hospital with emergency services","ogc_fid":104,"street_address":"31 Kiniry Street","lat":-36.111703},"id":"my_hospital_beds.104"},{"type":"Feature","geometry":{"type":"Point","coordinates":[140.76643800000002,-36.312133]},"properties":{"sector":"Public","hospital_name":"Bordertown Memorial Hospital","phone_number":"08 8752 9000","website":"www.sahealth.sa.gov.au\/wps\/wcm\/connect\/public+content\/sa+health+internet\/health+services\/hospitals+and+health+services+-+country+south+australia\/limestone+coast+hospitals+and+health+services\/bordertown+memorial+hospital","state":"SA","long":140.766438,"postcode":5268,"bed_cat":1,"id":99,"beds":"<50","suburb":"Bordertown","description":"Small regional hospital with emergency services","ogc_fid":105,"street_address":"23 South Terrace","lat":-36.312133},"id":"my_hospital_beds.105"},{"type":"Feature","geometry":{"type":"Point","coordinates":[139.910153,-22.910921]},"properties":{"sector":"Public","hospital_name":"Boulia Primary Health Centre","phone_number":"07 4746 2333","website":"www.health.qld.gov.au\/services\/centralwest\/cwest_boulia_phcc.asp","state":"Qld","long":139.910153,"postcode":4829,"bed_cat":1,"id":100,"beds":"<50","suburb":"Boulia","description":"Regional hospital with emergency services","ogc_fid":106,"street_address":"Wills Street","lat":-22.910921},"id":"my_hospital_beds.106"},{"type":"Feature","geometry":{"type":"Point","coordinates":[145.947983,-30.092822999999996]},"properties":{"sector":"Public","hospital_name":"Bourke Multi Purpose Service","phone_number":"02 6870 8888","website":null,"state":"NSW","long":145.947983,"postcode":2840,"bed_cat":1,"id":101,"beds":"<50","suburb":"Bourke","description":"Small regional hospital with an emergency department","ogc_fid":107,"street_address":"26 Tarcoon Street","lat":-30.092823},"id":"my_hospital_beds.107"},{"type":"Feature","geometry":{"type":"Point","coordinates":[149.719321,-34.748721]},"properties":{"sector":"Public","hospital_name":"Bourke Street Health Service","phone_number":"02 4823 7800","website":null,"state":"NSW","long":149.719321,"postcode":2580,"bed_cat":1,"id":102,"beds":"<50","suburb":"Goulburn","description":"Regional hospital","ogc_fid":108,"street_address":"234 Bourke Street","lat":-34.748721},"id":"my_hospital_beds.108"},{"type":"Feature","geometry":{"type":"Point","coordinates":[148.240327,-20.007104]},"properties":{"sector":"Public","hospital_name":"Bowen Hospital","phone_number":"07 4786 8222","website":"www.health.qld.gov.au\/services\/mackay\/bowen_hosp.asp","state":"Qld","long":148.240327,"postcode":4805,"bed_cat":1,"id":103,"beds":"<50","suburb":"Bowen","description":"Small regional hospital with emergency services","ogc_fid":109,"street_address":"Gregory Street","lat":-20.007104},"id":"my_hospital_beds.109"},{"type":"Feature","geometry":{"type":"Point","coordinates":[150.423796,-34.485043]},"properties":{"sector":"Public","hospital_name":"Bowral Hospital","phone_number":"02 4861 0200","website":null,"state":"NSW","long":150.423796,"postcode":2576,"bed_cat":2,"id":104,"beds":"50-99","suburb":"Bowral","description":"Medium-sized regional hospital with an emergency department","ogc_fid":110,"street_address":"Lot 3 Mona Road","lat":-34.485043},"id":"my_hospital_beds.110"},{"type":"Feature","geometry":{"type":"Point","coordinates":[145.119094,-37.813682]},"properties":{"sector":"Public","hospital_name":"Box Hill Hospital","phone_number":"03 9895 3333","website":"www.easternhealth.org.au","state":"Vic","long":145.119094,"postcode":3128,"bed_cat":4,"id":105,"beds":"200-500","suburb":"Box Hill","description":"Major metropolitan hospital with an emergency department","ogc_fid":111,"street_address":"51 Nelson Road","lat":-37.813682},"id":"my_hospital_beds.111"},{"type":"Feature","geometry":{"type":"Point","coordinates":[116.390639,-33.839231]},"properties":{"sector":"Public","hospital_name":"Boyup Brook Soldiers Memorial Hospital","phone_number":"08 9765 0222","website":"www.health.wa.gov.au\/services\/detail.cfm?Unit_ID=20","state":"WA","long":116.390639,"postcode":6244,"bed_cat":1,"id":106,"beds":"<50","suburb":"Boyup Brook","description":"Small regional hospital with emergency services","ogc_fid":112,"street_address":"Hospital Road","lat":-33.839231},"id":"my_hospital_beds.112"},{"type":"Feature","geometry":{"type":"Point","coordinates":[150.902192,-33.861917]},"properties":{"sector":"Public","hospital_name":"Braeside Hospital","phone_number":"02 9616 8600","website":null,"state":"NSW","long":150.902192,"postcode":2176,"bed_cat":2,"id":107,"beds":"50-99","suburb":"Prairiewood","description":"Metropolitan hospital","ogc_fid":113,"street_address":"340 Prairie Vale Road","lat":-33.861917},"id":"my_hospital_beds.113"},{"type":"Feature","geometry":{"type":"Point","coordinates":[149.805302,-35.443216]},"properties":{"sector":"Public","hospital_name":"Braidwood Multi Purpose Service","phone_number":"02 4842 2566","website":null,"state":"NSW","long":149.805302,"postcode":2622,"bed_cat":1,"id":108,"beds":"<50","suburb":"Braidwood","description":"Small regional hospital with an emergency department","ogc_fid":114,"street_address":"77 Monkittee Street","lat":-35.443216},"id":"my_hospital_beds.114"},{"type":"Feature","geometry":{"type":"Point","coordinates":[146.86379600000004,-29.961627000000004]},"properties":{"sector":"Public","hospital_name":"Brewarrina Multi Purpose Service","phone_number":"02 6830 5000","website":null,"state":"NSW","long":146.863796,"postcode":2839,"bed_cat":1,"id":109,"beds":"<50","suburb":"Brewarrina","description":"Small regional hospital with an emergency department","ogc_fid":115,"street_address":"56 Doyle Street","lat":-29.961627},"id":"my_hospital_beds.115"},{"type":"Feature","geometry":{"type":"Point","coordinates":[116.13218300000001,-33.951681]},"properties":{"sector":"Public","hospital_name":"Bridgetown Hospital","phone_number":"08 9782 1222","website":"www.health.wa.gov.au\/services\/detail.cfm?Unit_ID=22","state":"WA","long":116.132183,"postcode":6255,"bed_cat":1,"id":110,"beds":"<50","suburb":"Bridgetown","description":"Small regional hospital with emergency services","ogc_fid":116,"street_address":"16-18 Peninsula Road","lat":-33.951681},"id":"my_hospital_beds.116"},{"type":"Feature","geometry":{"type":"Point","coordinates":[149.1031,-35.3495]},"properties":{"sector":"Private","hospital_name":"Brindabella Endoscopy and Day Surgery Centre","phone_number":"02 6282 7788","website":"www.curagroup.com.au","state":"ACT","long":149.1031,"postcode":2605,"bed_cat":1,"id":111,"beds":"<50","suburb":"Garran","description":null,"ogc_fid":117,"street_address":"Unit 7, 5 Dann Close","lat":-35.3495},"id":"my_hospital_beds.117"},{"type":"Feature","geometry":{"type":"Point","coordinates":[153.06198500000002,-27.572418]},"properties":{"sector":"Private","hospital_name":"Brisbane Endoscopy Services P\/L","phone_number":"07 3344 1844","website":"www.gastros.com.au","state":"Qld","long":153.061985,"postcode":4109,"bed_cat":1,"id":112,"beds":"<50","suburb":"Sunnybank","description":null,"ogc_fid":118,"street_address":"Suites 16-18\/259 McCullough Street","lat":-27.572418},"id":"my_hospital_beds.118"},{"type":"Feature","geometry":{"type":"Point","coordinates":[153.022642,-27.464756]},"properties":{"sector":"Private","hospital_name":"Brisbane Private Hospital","phone_number":"07 3834 6111","website":"www.brisbaneprivatehospital.com.au","state":"Qld","long":153.022642,"postcode":4000,"bed_cat":3,"id":113,"beds":"100-199","suburb":"Brisbane","description":null,"ogc_fid":119,"street_address":"259 Wickham Terrace","lat":-27.464756},"id":"my_hospital_beds.119"},{"type":"Feature","geometry":{"type":"Point","coordinates":[151.321708,-33.495233]},"properties":{"sector":"Private","hospital_name":"Brisbane Waters Private Hospital","phone_number":"02 4341 9522","website":"www.brisbanewatersprivatehospital.com.au","state":"NSW","long":151.321708,"postcode":2256,"bed_cat":2,"id":114,"beds":"50-99","suburb":"Woy Woy","description":null,"ogc_fid":120,"street_address":"21 Vidler Avenue","lat":-33.495233},"id":"my_hospital_beds.120"},{"type":"Feature","geometry":{"type":"Point","coordinates":[144.913106,-37.684321]},"properties":{"sector":"Public","hospital_name":"Broadmeadows Health Service","phone_number":"03 8345 5000","website":null,"state":"Vic","long":144.913106,"postcode":3047,"bed_cat":3,"id":115,"beds":"100-199","suburb":"Broadmeadows","description":"Medium-sized metropolitan hospital","ogc_fid":121,"street_address":"35 Johnstone Street","lat":-37.684321},"id":"my_hospital_beds.121"},{"type":"Feature","geometry":{"type":"Point","coordinates":[141.454703,-31.947609000000003]},"properties":{"sector":"Public","hospital_name":"Broken Hill Hospital","phone_number":"08 8080 1333","website":null,"state":"NSW","long":141.454703,"postcode":2880,"bed_cat":2,"id":116,"beds":"50-99","suburb":"Broken Hill","description":"Medium-sized regional hospital with an emergency department","ogc_fid":122,"street_address":"176 Thomas Street","lat":-31.947609},"id":"my_hospital_beds.122"},{"type":"Feature","geometry":{"type":"Point","coordinates":[122.23628900000001,-17.960975]},"properties":{"sector":"Public","hospital_name":"Broome Hospital","phone_number":"08 9194 2222","website":"www.health.wa.gov.au\/services\/detail.cfm?Unit_ID=24","state":"WA","long":122.236289,"postcode":6725,"bed_cat":1,"id":117,"beds":"<50","suburb":"Broome","description":"Regional hospital with an emergency department","ogc_fid":123,"street_address":"Robinson Street","lat":-17.960975},"id":"my_hospital_beds.123"},{"type":"Feature","geometry":{"type":"Point","coordinates":[118.146414,-31.873038000000005]},"properties":{"sector":"Public","hospital_name":"Bruce Rock Memorial Hospital","phone_number":"08 9061 1311","website":"www.health.wa.gov.au\/services\/detail.cfm?Unit_ID=25","state":"WA","long":118.146414,"postcode":6418,"bed_cat":1,"id":118,"beds":"<50","suburb":"Bruce Rock","description":"Small regional hospital with emergency services","ogc_fid":124,"street_address":"35 Dunstall Street","lat":-31.873038},"id":"my_hospital_beds.124"},{"type":"Feature","geometry":{"type":"Point","coordinates":[152.210029,-32.403949]},"properties":{"sector":"Public","hospital_name":"Bulahdelah Hospital","phone_number":"02 4987 9900","website":null,"state":"NSW","long":152.210029,"postcode":2423,"bed_cat":1,"id":119,"beds":"<50","suburb":"Bulahdelah","description":"Regional hospital with an emergency department","ogc_fid":125,"street_address":"Richmond Street","lat":-32.403949},"id":"my_hospital_beds.125"},{"type":"Feature","geometry":{"type":"Point","coordinates":[150.907344,-34.336667]},"properties":{"sector":"Public","hospital_name":"Bulli Hospital","phone_number":"02 4284 4344","website":"www.islhd.health.nsw.gov.au\/Bulli_Hospital\/default.asp","state":"NSW","long":150.907344,"postcode":2516,"bed_cat":2,"id":120,"beds":"50-99","suburb":"Bulli","description":"Small metropolitan hospital with an emergency department","ogc_fid":126,"street_address":"Hospital Road","lat":-34.336667},"id":"my_hospital_beds.126"},{"type":"Feature","geometry":{"type":"Point","coordinates":[153.29112,-28.80834]},"properties":{"sector":"Public","hospital_name":"Riverlands Drug and Alcohol Centre","phone_number":"02 6620 7600","website":null,"state":"NSW","long":153.29112,"postcode":2480,"bed_cat":1,"id":764,"beds":"<50","suburb":"Lismore","description":"Drug and alcohol hospital","ogc_fid":127,"street_address":"Hunter Street","lat":-28.80834},"id":"my_hospital_beds.127"},{"type":"Feature","geometry":{"type":"Point","coordinates":[152.336157,-24.868877]},"properties":{"sector":"Public","hospital_name":"Bundaberg Hospital","phone_number":"07 4150 2222","website":"www.health.qld.gov.au\/services\/widebay\/wb-bundaberg.asp","state":"Qld","long":152.336157,"postcode":4670,"bed_cat":4,"id":121,"beds":"200-500","suburb":"Bundaberg","description":"Major regional hospital with an emergency department","ogc_fid":128,"street_address":"Bourbong Street","lat":-24.868877},"id":"my_hospital_beds.128"},{"type":"Feature","geometry":{"type":"Point","coordinates":[145.055569,-37.701124]},"properties":{"sector":"Public","hospital_name":"Bundoora Extended Care Centre","phone_number":"03 9495 3100","website":null,"state":"Vic","long":145.055569,"postcode":3083,"bed_cat":2,"id":122,"beds":"50-99","suburb":"Bundoora","description":"Specialist rehabilitation hospital","ogc_fid":129,"street_address":"1231 Plenty Road","lat":-37.701124},"id":"my_hospital_beds.129"},{"type":"Feature","geometry":{"type":"Point","coordinates":[148.012796,-34.634386]},"properties":{"sector":"Public","hospital_name":"Cootamundra Hospital","phone_number":"02 6942 0444","website":null,"state":"NSW","long":148.012796,"postcode":2590,"bed_cat":1,"id":219,"beds":"<50","suburb":"Cootamundra","description":"Small regional hospital with an emergency department","ogc_fid":130,"street_address":"120 Mackay Street","lat":-34.634386},"id":"my_hospital_beds.130"},{"type":"Feature","geometry":{"type":"Point","coordinates":[139.548135,-17.738023]},"properties":{"sector":"Public","hospital_name":"Burketown Health Centre","phone_number":"07 4745 5133","website":"www.health.qld.gov.au\/services\/northwest\/nwest_burket_hc.asp","state":"Qld","long":139.548135,"postcode":4830,"bed_cat":1,"id":123,"beds":"<50","suburb":"Burketown","description":"Small regional hospital with emergency services","ogc_fid":131,"street_address":"Hospital Road","lat":-17.738023},"id":"my_hospital_beds.131"},{"type":"Feature","geometry":{"type":"Point","coordinates":[138.638878,-34.927126]},"properties":{"sector":"Private","hospital_name":"Burnside War Memorial Hospital","phone_number":"08 8202 7222","website":"www.burnsidehospital.asn.au","state":"SA","long":138.638878,"postcode":5065,"bed_cat":2,"id":124,"beds":"50-99","suburb":"Toorak Gardens","description":null,"ogc_fid":132,"street_address":"120 Kensington Road","lat":-34.927126},"id":"my_hospital_beds.132"},{"type":"Feature","geometry":{"type":"Point","coordinates":[138.934577,-33.685486]},"properties":{"sector":"Public","hospital_name":"Burra Hospital","phone_number":"08 8892 2300","website":"www.sahealth.sa.gov.au\/wps\/wcm\/connect\/public+content\/sa+health+internet\/health+services\/hospitals+and+health+services+-+country+south+australia\/yorke+and+mid+north+hospitals+and+health+services\/burra+hospital+and+health+services","state":"SA","long":138.934577,"postcode":5417,"bed_cat":1,"id":125,"beds":"<50","suburb":"Burra","description":"Small regional hospital with emergency services","ogc_fid":133,"street_address":"46 Commercial Street","lat":-33.685486},"id":"my_hospital_beds.133"},{"type":"Feature","geometry":{"type":"Point","coordinates":[115.319581,-33.654351]},"properties":{"sector":"Public","hospital_name":"Busselton Hospital","phone_number":"08 9754 0333","website":"www.health.wa.gov.au\/services\/detail.cfm?Unit_ID=31","state":"WA","long":115.319581,"postcode":6280,"bed_cat":1,"id":126,"beds":"<50","suburb":"Busselton","description":"Medium-sized regional hospital with emergency services","ogc_fid":134,"street_address":"Mill Road","lat":-33.654351},"id":"my_hospital_beds.134"},{"type":"Feature","geometry":{"type":"Point","coordinates":[153.609337,-28.641899]},"properties":{"sector":"Public","hospital_name":"Byron Bay Hospital","phone_number":"02 6685 6200","website":null,"state":"NSW","long":153.609337,"postcode":2481,"bed_cat":1,"id":127,"beds":"<50","suburb":"Byron Bay","description":"Small regional hospital with an emergency department","ogc_fid":135,"street_address":"10 Shirley Street","lat":-28.641899},"id":"my_hospital_beds.135"},{"type":"Feature","geometry":{"type":"Point","coordinates":[152.96362300000004,-27.080776]},"properties":{"sector":"Public","hospital_name":"Caboolture Hospital","phone_number":"07 5433 8888","website":"www.health.qld.gov.au\/services\/metronorth\/metronorth_cabool_hosp.asp","state":"Qld","long":152.963623,"postcode":4510,"bed_cat":4,"id":128,"beds":"200-500","suburb":"Caboolture","description":"Major metropolitan hospital with an emergency department","ogc_fid":136,"street_address":"McKean Street","lat":-27.080776},"id":"my_hospital_beds.136"},{"type":"Feature","geometry":{"type":"Point","coordinates":[152.963628,-27.080318]},"properties":{"sector":"Private","hospital_name":"Caboolture Private Hospital","phone_number":"07 5495 9400","website":"www.cabooltureprivate.com.au","state":"Qld","long":152.963628,"postcode":4510,"bed_cat":1,"id":129,"beds":"<50","suburb":"Caboolture","description":null,"ogc_fid":137,"street_address":"McKean Street","lat":-27.080318},"id":"my_hospital_beds.137"},{"type":"Feature","geometry":{"type":"Point","coordinates":[144.991572,-37.91165]},"properties":{"sector":"Private","hospital_name":"Cabrini Brighton","phone_number":"03 9508 8777","website":"www.cabrini.com.au","state":"Vic","long":144.991572,"postcode":3186,"bed_cat":3,"id":130,"beds":"100-199","suburb":"Brighton","description":null,"ogc_fid":138,"street_address":"243 New Street","lat":-37.91165},"id":"my_hospital_beds.138"},{"type":"Feature","geometry":{"type":"Point","coordinates":[145.009328,-37.88543]},"properties":{"sector":"Private","hospital_name":"Cabrini Health Elsternwick Rehabilitation - Glenhuntly Rd","phone_number":"03 9508 5200","website":"www.cabrini.com.au","state":"Vic","long":145.009328,"postcode":3185,"bed_cat":1,"id":131,"beds":"<50","suburb":"Elsternwick","description":null,"ogc_fid":139,"street_address":"494 Glenhuntly Road","lat":-37.88543},"id":"my_hospital_beds.139"},{"type":"Feature","geometry":{"type":"Point","coordinates":[145.01039,-37.884778]},"properties":{"sector":"Private","hospital_name":"Cabrini Health Elsternwick Rehabilitation - Hopetoun","phone_number":"03 9508 5100","website":"www.cabrini.com.au","state":"Vic","long":145.01039,"postcode":3185,"bed_cat":1,"id":132,"beds":"<50","suburb":"Elsternwick","description":null,"ogc_fid":140,"street_address":"2-6 Hopetoun Street","lat":-37.884778},"id":"my_hospital_beds.140"},{"type":"Feature","geometry":{"type":"Point","coordinates":[145.0335,-37.861641]},"properties":{"sector":"Private","hospital_name":"Cabrini Malvern","phone_number":"03 9508 1222","website":"www.cabrini.com.au","state":"Vic","long":145.0335,"postcode":3144,"bed_cat":5,"id":133,"beds":">500","suburb":"Malvern","description":null,"ogc_fid":141,"street_address":"183 Wattletree Road","lat":-37.861641},"id":"my_hospital_beds.141"},{"type":"Feature","geometry":{"type":"Point","coordinates":[145.009017,-37.854034000000006]},"properties":{"sector":"Private","hospital_name":"Cabrini Prahran","phone_number":"03 95081000","website":"www.cabrini.com.au","state":"Vic","long":145.009017,"postcode":3181,"bed_cat":1,"id":134,"beds":"<50","suburb":"Prahran","description":null,"ogc_fid":142,"street_address":"646 High Street","lat":-37.854034},"id":"my_hospital_beds.142"},{"type":"Feature","geometry":{"type":"Point","coordinates":[145.771955,-16.918973]},"properties":{"sector":"Private","hospital_name":"Cairns Day Surgery","phone_number":"07 4051 5454","website":null,"state":"Qld","long":145.771955,"postcode":4870,"bed_cat":null,"id":135,"beds":null,"suburb":"Cairns","description":null,"ogc_fid":143,"street_address":"156-160 Grafton Street","lat":-16.918973},"id":"my_hospital_beds.143"},{"type":"Feature","geometry":{"type":"Point","coordinates":[145.768522,-16.912537]},"properties":{"sector":"Public","hospital_name":"Cairns Hospital","phone_number":"07 4226 0000","website":"www.health.qld.gov.au\/services\/cairns-hinterland\/cairns_cairns_hosp.asp","state":"Qld","long":145.768522,"postcode":4870,"bed_cat":4,"id":136,"beds":"200-500","suburb":"Cairns","description":"Major regional hospital with an emergency department","ogc_fid":144,"street_address":"The Esplanade","lat":-16.912537},"id":"my_hospital_beds.144"},{"type":"Feature","geometry":{"type":"Point","coordinates":[145.772282,-16.918854]},"properties":{"sector":"Private","hospital_name":"Cairns Private Hospital","phone_number":"07 4052 5200","website":"www.cairnsph.com.au","state":"Qld","long":145.772282,"postcode":4870,"bed_cat":3,"id":137,"beds":"100-199","suburb":"Cairns","description":null,"ogc_fid":145,"street_address":"1 Upward Street","lat":-16.918854},"id":"my_hospital_beds.145"},{"type":"Feature","geometry":{"type":"Point","coordinates":[153.119759,-26.800582]},"properties":{"sector":"Public","hospital_name":"Caloundra Hospital","phone_number":"07 5436 8500","website":"www.health.qld.gov.au\/services\/sunshinecoast\/caloundra.asp","state":"Qld","long":153.119759,"postcode":4551,"bed_cat":2,"id":138,"beds":"50-99","suburb":"Caloundra","description":"Medium-sized metropolitan hospital with an emergency department","ogc_fid":146,"street_address":"West Terrace","lat":-26.800582},"id":"my_hospital_beds.146"},{"type":"Feature","geometry":{"type":"Point","coordinates":[153.125534,-26.782379]},"properties":{"sector":"Private","hospital_name":"Caloundra Private Hospital","phone_number":"07 5491 1522","website":"www.caloundraprivate.com.au","state":"Qld","long":153.125534,"postcode":4551,"bed_cat":2,"id":139,"beds":"50-99","suburb":"Caloundra","description":null,"ogc_fid":147,"street_address":"96 Beerburrum Street","lat":-26.782379},"id":"my_hospital_beds.147"},{"type":"Feature","geometry":{"type":"Point","coordinates":[138.656221,-34.75542]},"properties":{"sector":"Private","hospital_name":"Calvary Central Districts Hospital","phone_number":"08 8250 4111","website":"www.calvarycentraldistricts.org.au","state":"SA","long":138.656221,"postcode":5112,"bed_cat":2,"id":140,"beds":"50-99","suburb":"Elizabeth Vale","description":null,"ogc_fid":148,"street_address":"25-37 Jarvis Road","lat":-34.75542},"id":"my_hospital_beds.148"},{"type":"Feature","geometry":{"type":"Point","coordinates":[145.013415,-37.896962]},"properties":{"sector":"Public","hospital_name":"Calvary Health Care Bethlehem","phone_number":"03 9596 2853","website":"www.bethlehem.org.au\/","state":"Vic","long":145.013415,"postcode":3162,"bed_cat":2,"id":141,"beds":"50-99","suburb":"Caulfield","description":"Metropolitan hospital","ogc_fid":149,"street_address":"476 Kooyong Road","lat":-37.896962},"id":"my_hospital_beds.149"},{"type":"Feature","geometry":{"type":"Point","coordinates":[147.352811,-35.118702]},"properties":{"sector":"Private","hospital_name":"Calvary Health Care Riverina","phone_number":"02 6925 3055","website":"www.calvary-wagga.com.au","state":"NSW","long":147.352811,"postcode":2650,"bed_cat":2,"id":142,"beds":"50-99","suburb":"Wagga Wagga","description":null,"ogc_fid":150,"street_address":"Hardy Avenue","lat":-35.118702},"id":"my_hospital_beds.150"},{"type":"Feature","geometry":{"type":"Point","coordinates":[147.303614,-42.866099]},"properties":{"sector":"Private","hospital_name":"Calvary Health Care Tasmania - Lenah Valley Campus","phone_number":"03 6278 5333","website":"www.calvarylenahvalley.org.au","state":"Tas","long":147.303614,"postcode":7008,"bed_cat":3,"id":143,"beds":"100-199","suburb":"Lenah Valley","description":null,"ogc_fid":151,"street_address":"49 Augusta Road","lat":-42.866099},"id":"my_hospital_beds.151"},{"type":"Feature","geometry":{"type":"Point","coordinates":[147.305975,-42.895314]},"properties":{"sector":"Private","hospital_name":"Calvary Health Care Tasmania - St John''s Campus","phone_number":"03 6323 7444","website":"www.calvarystjohns.org.au","state":"Tas","long":147.305975,"postcode":7004,"bed_cat":2,"id":144,"beds":"50-99","suburb":"South Hobart","description":null,"ogc_fid":152,"street_address":"30 Cascade Road","lat":-42.895314},"id":"my_hospital_beds.152"},{"type":"Feature","geometry":{"type":"Point","coordinates":[147.149521,-41.433895]},"properties":{"sector":"Private","hospital_name":"Calvary Health Care Tasmania - St Luke''s Campus","phone_number":"03 6335 3333","website":"www.calvarystlukes.org.au","state":"Tas","long":147.149521,"postcode":7250,"bed_cat":2,"id":145,"beds":"50-99","suburb":"Launceston","description":null,"ogc_fid":153,"street_address":"24 Lyttleton Street","lat":-41.433895},"id":"my_hospital_beds.153"},{"type":"Feature","geometry":{"type":"Point","coordinates":[147.141308,-41.441013]},"properties":{"sector":"Private","hospital_name":"Calvary Health Care Tasmania - St Vincent''s Campus","phone_number":"03 6332 4999","website":"www.calvarystvincents.org.au","state":"Tas","long":147.141308,"postcode":7250,"bed_cat":2,"id":146,"beds":"50-99","suburb":"Launceston","description":null,"ogc_fid":154,"street_address":"5 Frederick Street","lat":-41.441013},"id":"my_hospital_beds.154"},{"type":"Feature","geometry":{"type":"Point","coordinates":[151.136206,-33.976132]},"properties":{"sector":"Public","hospital_name":"Calvary Hospital","phone_number":"02 9553 3111","website":"www.seslhd.health.nsw.gov.au\/Calvary_Hospital\/default.asp","state":"NSW","long":151.136206,"postcode":2217,"bed_cat":3,"id":147,"beds":"100-199","suburb":"Kogarah","description":"Specialist rehabilitation hospital","ogc_fid":155,"street_address":"91-101 Rocky Point Road","lat":-33.976132},"id":"my_hospital_beds.155"},{"type":"Feature","geometry":{"type":"Point","coordinates":[149.095662,-35.319869]},"properties":{"sector":"Private","hospital_name":"Calvary John James Hospital","phone_number":"02 6281 8100","website":"www.calvaryjohnjames.com.au","state":"ACT","long":149.095662,"postcode":2600,"bed_cat":3,"id":148,"beds":"100-199","suburb":"Deakin","description":null,"ogc_fid":156,"street_address":"173 Strickland Crescent","lat":-35.319869},"id":"my_hospital_beds.156"},{"type":"Feature","geometry":{"type":"Point","coordinates":[151.720858,-32.899371]},"properties":{"sector":"Public","hospital_name":"Calvary Mater Newcastle Hospital","phone_number":"02 4921 1211","website":"www.calvarymater.org.au\/","state":"NSW","long":151.720858,"postcode":2298,"bed_cat":3,"id":149,"beds":"100-199","suburb":"Waratah","description":"Large metropolitan hospital with an emergency department","ogc_fid":157,"street_address":"20 Edith Street","lat":-32.899371},"id":"my_hospital_beds.157"},{"type":"Feature","geometry":{"type":"Point","coordinates":[138.589095,-34.910003]},"properties":{"sector":"Private","hospital_name":"Calvary North Adelaide Hospital","phone_number":"08 8239 9100","website":"www.calvarynorthadelaide.org.au","state":"SA","long":138.589095,"postcode":5006,"bed_cat":3,"id":150,"beds":"100-199","suburb":"Nth Adelaide","description":null,"ogc_fid":158,"street_address":"89 Strangways Terrace","lat":-34.910003},"id":"my_hospital_beds.158"},{"type":"Feature","geometry":{"type":"Point","coordinates":[149.088646,-35.252882]},"properties":{"sector":"Private","hospital_name":"Calvary Private Hospital Bruce","phone_number":"02 6201 6363","website":"www.calvaryactprivate.org.au\/visitors.html","state":"ACT","long":149.088646,"postcode":2617,"bed_cat":2,"id":151,"beds":"50-99","suburb":"Bruce","description":null,"ogc_fid":159,"street_address":"Corner of Belconnen Way and Haydon Drive","lat":-35.252882},"id":"my_hospital_beds.159"},{"type":"Feature","geometry":{"type":"Point","coordinates":[149.089654,-35.253321]},"properties":{"sector":"Public","hospital_name":"Calvary Public Hospital","phone_number":"02 6201 6111","website":"www.calvary-act.com.au","state":"ACT","long":149.089654,"postcode":2617,"bed_cat":4,"id":152,"beds":"200-500","suburb":"Bruce","description":"Major metropolitan hospital with an emergency department","ogc_fid":160,"street_address":"Haydon Drive","lat":-35.253321},"id":"my_hospital_beds.160"},{"type":"Feature","geometry":{"type":"Point","coordinates":[138.611481,-34.89173900000001]},"properties":{"sector":"Private","hospital_name":"Calvary Rehabilitation Hospital","phone_number":"08 8168 5700","website":"www.calvaryrehabsa.org.au","state":"SA","long":138.611481,"postcode":5081,"bed_cat":2,"id":153,"beds":"50-99","suburb":"Walkerville","description":null,"ogc_fid":161,"street_address":"18 North East Road","lat":-34.891739},"id":"my_hospital_beds.161"},{"type":"Feature","geometry":{"type":"Point","coordinates":[138.611154,-34.927689]},"properties":{"sector":"Private","hospital_name":"Calvary Wakefield Hospital","phone_number":"08 8405 3333","website":"www.calvarywakefield.org.au","state":"SA","long":138.611154,"postcode":5000,"bed_cat":3,"id":154,"beds":"100-199","suburb":"Adelaide","description":null,"ogc_fid":162,"street_address":"300 Wakefield Street","lat":-34.927689},"id":"my_hospital_beds.162"},{"type":"Feature","geometry":{"type":"Point","coordinates":[150.693297,-34.062702]},"properties":{"sector":"Public","hospital_name":"Camden Hospital","phone_number":"02 4634 3000","website":"www.sswahs.nsw.gov.au\/CCQ\/","state":"NSW","long":150.693297,"postcode":2570,"bed_cat":2,"id":155,"beds":"50-99","suburb":"Camden","description":"Small metropolitan hospital with an emergency department","ogc_fid":163,"street_address":"65 Menangle Road","lat":-34.062702},"id":"my_hospital_beds.163"},{"type":"Feature","geometry":{"type":"Point","coordinates":[153.27609900000004,-28.992957000000004]},"properties":{"sector":"Public","hospital_name":"Coraki Hospital","phone_number":"02 6683 2019","website":null,"state":"NSW","long":153.276099,"postcode":2471,"bed_cat":1,"id":220,"beds":"<50","suburb":"Coraki","description":"Regional hospital","ogc_fid":164,"street_address":"Spring Street","lat":-28.992957},"id":"my_hospital_beds.164"},{"type":"Feature","geometry":{"type":"Point","coordinates":[138.11984,-19.91954]},"properties":{"sector":"Public","hospital_name":"Camooweal Health Centre","phone_number":"07 4748 2159","website":"www.health.qld.gov.au\/services\/northwest\/nwest_camoo_hc.asp","state":"Qld","long":138.11984,"postcode":4828,"bed_cat":1,"id":156,"beds":"<50","suburb":"Camooweal","description":"Small regional hospital with emergency services","ogc_fid":165,"street_address":"Nowranie Street","lat":-19.91954},"id":"my_hospital_beds.165"},{"type":"Feature","geometry":{"type":"Point","coordinates":[147.493107,-41.926339]},"properties":{"sector":"Public","hospital_name":"Campbell Town Multi Purpose Service","phone_number":"03 6381 3300","website":"www.dhhs.tas.gov.au\/service_information\/service_delivery_points\/campbell_town_health_and_community_service","state":"Tas","long":147.493107,"postcode":7210,"bed_cat":1,"id":157,"beds":"<50","suburb":"Campbell Town","description":"Small regional hospital","ogc_fid":166,"street_address":"70 High Street","lat":-41.926339},"id":"my_hospital_beds.166"},{"type":"Feature","geometry":{"type":"Point","coordinates":[150.806321,-34.077651]},"properties":{"sector":"Public","hospital_name":"Campbelltown Hospital","phone_number":"02 4634 3000","website":null,"state":"NSW","long":150.806321,"postcode":2560,"bed_cat":4,"id":158,"beds":"200-500","suburb":"Campbelltown","description":"Major metropolitan hospital with an emergency department","ogc_fid":167,"street_address":"Therry Road","lat":-34.077651},"id":"my_hospital_beds.167"},{"type":"Feature","geometry":{"type":"Point","coordinates":[150.804948,-34.075607]},"properties":{"sector":"Private","hospital_name":"Campbelltown Private Hospital","phone_number":"02 4621 9111","website":"www.campbelltownprivatehospital.com.au","state":"NSW","long":150.804948,"postcode":2560,"bed_cat":2,"id":159,"beds":"50-99","suburb":"Campbelltown","description":null,"ogc_fid":168,"street_address":"42 Parkside Crescent (Corner of Hyde Street)","lat":-34.075607},"id":"my_hospital_beds.168"},{"type":"Feature","geometry":{"type":"Point","coordinates":[149.096004,-35.318557]},"properties":{"sector":"Private","hospital_name":"Canberra Imaging Group Angiography\/Interventional Suite","phone_number":"02 6203 2092","website":"www.canberraimaging.com.au","state":"ACT","long":149.096004,"postcode":2600,"bed_cat":1,"id":160,"beds":"<50","suburb":"Deakin","description":null,"ogc_fid":169,"street_address":"173 Strickland Cresent","lat":-35.318557},"id":"my_hospital_beds.169"},{"type":"Feature","geometry":{"type":"Point","coordinates":[148.676576,-33.557204]},"properties":{"sector":"Public","hospital_name":"Canowindra Hospital","phone_number":"02 6340 3033","website":null,"state":"NSW","long":148.676576,"postcode":2804,"bed_cat":1,"id":161,"beds":"<50","suburb":"Canowindra","description":"Small regional hospital with an emergency department","ogc_fid":170,"street_address":"Browns Avenue","lat":-33.557204},"id":"my_hospital_beds.170"},{"type":"Feature","geometry":{"type":"Point","coordinates":[151.098275,-33.919592]},"properties":{"sector":"Public","hospital_name":"Canterbury Hospital","phone_number":"02 9787 0000","website":"www.sswahs.nsw.gov.au\/Canterbury\/","state":"NSW","long":151.098275,"postcode":2194,"bed_cat":3,"id":162,"beds":"100-199","suburb":"Campsie","description":"Large metropolitan hospital with an emergency department","ogc_fid":171,"street_address":"575 Canterbury Road","lat":-33.919592},"id":"my_hospital_beds.171"},{"type":"Feature","geometry":{"type":"Point","coordinates":[148.021845,-23.080185000000004]},"properties":{"sector":"Public","hospital_name":"Capella Outpatients Clinic","phone_number":"07 4984 9634","website":"www.health.qld.gov.au\/services\/central-queensland\/rural.asp","state":"Qld","long":148.021845,"postcode":4702,"bed_cat":1,"id":163,"beds":"<50","suburb":"Capella","description":"Regional hospital","ogc_fid":172,"street_address":"Slider Street","lat":-23.080185},"id":"my_hospital_beds.172"},{"type":"Feature","geometry":{"type":"Point","coordinates":[150.734519,-23.143888]},"properties":{"sector":"Public","hospital_name":"Capricorn Coast Hospital","phone_number":"07 4913 3000","website":"www.health.qld.gov.au\/services\/central-queensland\/cap-coast.asp","state":"Qld","long":150.734519,"postcode":4703,"bed_cat":1,"id":164,"beds":"<50","suburb":"Yeppoon","description":"Medium-sized regional hospital with emergency services","ogc_fid":173,"street_address":"8 Hoskyn Drive","lat":-23.143888},"id":"my_hospital_beds.173"},{"type":"Feature","geometry":{"type":"Point","coordinates":[144.970625,-37.809419]},"properties":{"sector":"Public","hospital_name":"Careplans Assessment Victoria","phone_number":null,"website":null,"state":"Vic","long":144.970625,"postcode":3000,"bed_cat":null,"id":165,"beds":null,"suburb":null,"description":"Metropolitan hospital","ogc_fid":174,"street_address":null,"lat":-37.809419},"id":"my_hospital_beds.174"},{"type":"Feature","geometry":{"type":"Point","coordinates":[145.015557,-37.804706]},"properties":{"sector":"Public","hospital_name":"Caritas Christi Hospice [Kew]","phone_number":"03 9853 2344","website":"www.cch.svhm.org.au","state":"Vic","long":145.015557,"postcode":3101,"bed_cat":1,"id":166,"beds":"<50","suburb":"Kew","description":"Metropolitan hospital","ogc_fid":175,"street_address":"104 Studley Park Road","lat":-37.804706},"id":"my_hospital_beds.175"},{"type":"Feature","geometry":{"type":"Point","coordinates":[113.658993,-24.886592]},"properties":{"sector":"Public","hospital_name":"Carnarvon Hospital","phone_number":"08 9941 0555","website":"www.health.wa.gov.au\/services\/detail.cfm?Unit_ID=32","state":"WA","long":113.658993,"postcode":6701,"bed_cat":1,"id":167,"beds":"<50","suburb":"Carnarvon","description":"Small regional hospital with emergency services","ogc_fid":176,"street_address":"Cleaver Street","lat":-24.886592},"id":"my_hospital_beds.176"},{"type":"Feature","geometry":{"type":"Point","coordinates":[145.347181,-38.045325]},"properties":{"sector":"Public","hospital_name":"Casey Hospital","phone_number":"03 8768 1200","website":null,"state":"Vic","long":145.347181,"postcode":3806,"bed_cat":4,"id":168,"beds":"200-500","suburb":"Berwick","description":"Major metropolitan hospital with an emergency department","ogc_fid":177,"street_address":"52 Kangan Drive","lat":-38.045325},"id":"my_hospital_beds.177"},{"type":"Feature","geometry":{"type":"Point","coordinates":[153.035827,-28.859839000000004]},"properties":{"sector":"Public","hospital_name":"Casino Hospital","phone_number":"02 6662 2111","website":null,"state":"NSW","long":153.035827,"postcode":2470,"bed_cat":1,"id":169,"beds":"<50","suburb":"Casino","description":"Medium-sized regional hospital with an emergency department","ogc_fid":178,"street_address":"Hotham Street","lat":-28.859839},"id":"my_hospital_beds.178"},{"type":"Feature","geometry":{"type":"Point","coordinates":[141.392283,-37.589989]},"properties":{"sector":"Public","hospital_name":"Casterton Memorial Hospital","phone_number":"03 5554 2555","website":"www.swarh.com.au\/casterton","state":"Vic","long":141.392283,"postcode":3311,"bed_cat":1,"id":170,"beds":"<50","suburb":"Casterton","description":"Small regional hospital with emergency services","ogc_fid":179,"street_address":"63-69 Russell Street","lat":-37.589989},"id":"my_hospital_beds.179"},{"type":"Feature","geometry":{"type":"Point","coordinates":[151.004099,-33.73507000000001]},"properties":{"sector":"Private","hospital_name":"Castle Hill Day Surgery","phone_number":"02 8850 0500","website":"www.chds.com.au","state":"NSW","long":151.004099,"postcode":2154,"bed_cat":1,"id":171,"beds":"<50","suburb":"Castle Hill","description":null,"ogc_fid":180,"street_address":"72-74 Cecil Avenue","lat":-33.73507},"id":"my_hospital_beds.180"},{"type":"Feature","geometry":{"type":"Point","coordinates":[151.217045,-33.801822]},"properties":{"sector":"Private","hospital_name":"Castlecrag Private Hospital","phone_number":"02 9935 0200","website":"www.castlecragprivate.com.au\/","state":"NSW","long":151.217045,"postcode":2068,"bed_cat":1,"id":172,"beds":"<50","suburb":"Castlecrag","description":null,"ogc_fid":181,"street_address":"150 Edinburgh Road","lat":-33.801822},"id":"my_hospital_beds.181"},{"type":"Feature","geometry":{"type":"Point","coordinates":[144.212315,-37.052539]},"properties":{"sector":"Public","hospital_name":"Castlemaine Health","phone_number":"03 5471 1555","website":"www.mtalexhosp.vic.gov.au","state":"Vic","long":144.212315,"postcode":3450,"bed_cat":2,"id":173,"beds":"50-99","suburb":"Castlemaine","description":"Medium-sized regional hospital with emergency services","ogc_fid":182,"street_address":"142 Cornish Street","lat":-37.052539},"id":"my_hospital_beds.182"},{"type":"Feature","geometry":{"type":"Point","coordinates":[145.016892,-37.882707]},"properties":{"sector":"Public","hospital_name":"Caulfield Hospital","phone_number":"03 9076 6000","website":"www.cgmc.org.au","state":"Vic","long":145.016892,"postcode":3162,"bed_cat":4,"id":174,"beds":"200-500","suburb":"Caulfield","description":"Medium-sized metropolitan hospital","ogc_fid":183,"street_address":"260-294 Kooyong Road","lat":-37.882707},"id":"my_hospital_beds.183"},{"type":"Feature","geometry":{"type":"Point","coordinates":[133.67231700000002,-32.119099]},"properties":{"sector":"Public","hospital_name":"Ceduna District Health Service","phone_number":"08 8626 2150","website":"www.sahealth.sa.gov.au\/wps\/wcm\/connect\/public+content\/sa+health+internet\/health+services\/hospitals+and+health+services+-+country+south+australia\/eyre+peninsula+western+hospitals+health+services\/ceduna+district+health+services","state":"SA","long":133.672317,"postcode":5690,"bed_cat":1,"id":175,"beds":"<50","suburb":"Ceduna","description":"Small regional hospital with emergency services","ogc_fid":184,"street_address":"3 Eyre Highway","lat":-32.119099},"id":"my_hospital_beds.184"},{"type":"Feature","geometry":{"type":"Point","coordinates":[151.384354,-33.439692]},"properties":{"sector":"Private","hospital_name":"Central Coast Day Hospital","phone_number":"02 4367 3880","website":null,"state":"NSW","long":151.384354,"postcode":2250,"bed_cat":1,"id":176,"beds":"<50","suburb":"Erina","description":null,"ogc_fid":185,"street_address":"Suite 1, Fountain Corporate, 2 Ilya Avenue","lat":-33.439692},"id":"my_hospital_beds.185"},{"type":"Feature","geometry":{"type":"Point","coordinates":[146.983487,-37.961032]},"properties":{"sector":"Public","hospital_name":"Central Gippsland Health Service [Maffra]","phone_number":"03 5147 0100","website":"www.gha.net.au","state":"Vic","long":146.983487,"postcode":3860,"bed_cat":1,"id":177,"beds":"<50","suburb":"Maffra","description":"Regional hospital","ogc_fid":186,"street_address":"48 Kent Street","lat":-37.961032},"id":"my_hospital_beds.186"},{"type":"Feature","geometry":{"type":"Point","coordinates":[147.08063700000002,-38.108408]},"properties":{"sector":"Public","hospital_name":"Central Gippsland Health Service [Sale]","phone_number":"03 5143 8600","website":"www.gha.net.au","state":"Vic","long":147.080637,"postcode":3850,"bed_cat":2,"id":178,"beds":"50-99","suburb":"Sale","description":"Large regional hospital with an emergency department","ogc_fid":187,"street_address":"155 Guthridge Parade","lat":-38.108408},"id":"my_hospital_beds.187"},{"type":"Feature","geometry":{"type":"Point","coordinates":[137.673947,-34.370494]},"properties":{"sector":"Public","hospital_name":"Central Yorke Peninsula Hospital [Maitland]","phone_number":"08 8862 2626","website":"www.sahealth.sa.gov.au\/wps\/wcm\/connect\/public+content\/sa+health+internet\/health+services\/hospitals+and+health+services+-+country+south+australia\/yorke+and+mid+north+hospitals+and+health+services\/maitland+hospital+and+health+services","state":"SA","long":137.673947,"postcode":5573,"bed_cat":1,"id":179,"beds":"<50","suburb":"Maitland","description":"Small regional hospital with emergency services","ogc_fid":188,"street_address":"65 Robert Street","lat":-34.370494},"id":"my_hospital_beds.188"},{"type":"Feature","geometry":{"type":"Point","coordinates":[151.130092,-33.865117]},"properties":{"sector":"Private","hospital_name":"Centre for Digestive Diseases","phone_number":"02 9713 4011","website":"www.cdd.com.au","state":"NSW","long":151.130092,"postcode":2046,"bed_cat":null,"id":180,"beds":null,"suburb":"Five Dock","description":null,"ogc_fid":189,"street_address":"Level 1, 229 Great North Road","lat":-33.865117},"id":"my_hospital_beds.189"},{"type":"Feature","geometry":{"type":"Point","coordinates":[151.348396,-32.827754]},"properties":{"sector":"Public","hospital_name":"Cessnock Hospital","phone_number":"02 4991 0555","website":null,"state":"NSW","long":151.348396,"postcode":2325,"bed_cat":1,"id":181,"beds":"<50","suburb":"Cessnock","description":"Medium-sized regional hospital with an emergency department","ogc_fid":190,"street_address":"24 View Street","lat":-32.827754},"id":"my_hospital_beds.190"},{"type":"Feature","geometry":{"type":"Point","coordinates":[146.239228,-26.410455]},"properties":{"sector":"Public","hospital_name":"Charleville Hospital","phone_number":"07 4650 5000","website":"www.health.qld.gov.au\/services\/southwest\/swest_cville_hosp.asp","state":"Qld","long":146.239228,"postcode":4470,"bed_cat":1,"id":182,"beds":"<50","suburb":"Charleville","description":"Small regional hospital with emergency services","ogc_fid":191,"street_address":"72 King Street","lat":-26.410455},"id":"my_hospital_beds.191"},{"type":"Feature","geometry":{"type":"Point","coordinates":[146.264097,-20.076167]},"properties":{"sector":"Public","hospital_name":"Charters Towers Hospital","phone_number":"07 4787 0333","website":"www.health.qld.gov.au\/services\/townsville\/tville_ctowers_hc.asp","state":"Qld","long":146.264097,"postcode":4820,"bed_cat":1,"id":183,"beds":"<50","suburb":"Charters Towers","description":"Small regional hospital with emergency services","ogc_fid":192,"street_address":"137-139 Gill Street","lat":-20.076167},"id":"my_hospital_beds.192"},{"type":"Feature","geometry":{"type":"Point","coordinates":[146.280459,-20.076801]},"properties":{"sector":"Public","hospital_name":"Charters Towers Rehabilitation Unit","phone_number":"07 4787 5200","website":"www.health.qld.gov.au\/services\/townsville\/tville_ctowers_rc.asp","state":"Qld","long":146.280459,"postcode":4820,"bed_cat":1,"id":184,"beds":"<50","suburb":"Charters Towers","description":"Specialist psychiatric hospital","ogc_fid":193,"street_address":"35 Gladstone Road","lat":-20.076801},"id":"my_hospital_beds.193"},{"type":"Feature","geometry":{"type":"Point","coordinates":[151.956324,-26.291519]},"properties":{"sector":"Public","hospital_name":"Cherbourg Hospital","phone_number":"07 4169 8800","website":"www.health.qld.gov.au\/services\/darlingdowns\/ddowns-cherbourg-hs.asp","state":"Qld","long":151.956324,"postcode":4605,"bed_cat":1,"id":185,"beds":"<50","suburb":"Cherbourg","description":"Small regional hospital with emergency services","ogc_fid":194,"street_address":"Fisher Street","lat":-26.291519},"id":"my_hospital_beds.194"},{"type":"Feature","geometry":{"type":"Point","coordinates":[153.029423,-27.381971]},"properties":{"sector":"Private","hospital_name":"Chermside Day Hospital","phone_number":"07 3120 3444","website":"www.chermsidedayhospital.com.au","state":"Qld","long":153.029423,"postcode":4032,"bed_cat":1,"id":186,"beds":"<50","suburb":"Chermside","description":null,"ogc_fid":195,"street_address":"1\/956 Gympie Road","lat":-27.381971},"id":"my_hospital_beds.195"},{"type":"Feature","geometry":{"type":"Point","coordinates":[152.273286,-25.239416]},"properties":{"sector":"Public","hospital_name":"Childers Hospital","phone_number":"07 4192 1133","website":"www.health.qld.gov.au\/services\/widebay\/wb-childers.asp","state":"Qld","long":152.273286,"postcode":4660,"bed_cat":1,"id":188,"beds":"<50","suburb":"Childers","description":"Small regional hospital with emergency services","ogc_fid":196,"street_address":"44 Broadhurst Street","lat":-25.239416},"id":"my_hospital_beds.196"},{"type":"Feature","geometry":{"type":"Point","coordinates":[144.528021,-17.150201]},"properties":{"sector":"Public","hospital_name":"Chillagoe Hospital","phone_number":"07 4094 7500","website":"www.health.qld.gov.au\/services\/cairns-hinterland\/cairns_chillagoe_hosp.asp","state":"Qld","long":144.528021,"postcode":4871,"bed_cat":1,"id":189,"beds":"<50","suburb":"Chillagoe","description":"Regional hospital with emergency services","ogc_fid":197,"street_address":"21 Hospital Road","lat":-17.150201},"id":"my_hospital_beds.197"},{"type":"Feature","geometry":{"type":"Point","coordinates":[150.634939,-26.741337]},"properties":{"sector":"Public","hospital_name":"Chinchilla Hospital","phone_number":"07 4662 8888","website":"www.health.qld.gov.au\/services\/darlingdowns\/ddowns-chinchilla-hs.asp","state":"Qld","long":150.634939,"postcode":4413,"bed_cat":1,"id":190,"beds":"<50","suburb":"Chinchilla","description":"Small regional hospital with emergency services","ogc_fid":198,"street_address":"Slessar Street","lat":-26.741337},"id":"my_hospital_beds.198"},{"type":"Feature","geometry":{"type":"Point","coordinates":[138.614416,-33.829588]},"properties":{"sector":"Public","hospital_name":"Clare Hospital","phone_number":"08 8842 6500","website":"www.sahealth.sa.gov.au\/wps\/wcm\/connect\/public+content\/sa+health+internet\/health+services\/hospitals+and+health+services+-+country+south+australia\/yorke+and+mid+north+hospitals+and+health+services\/clare+hospital+and+health+services","state":"SA","long":138.614416,"postcode":5453,"bed_cat":1,"id":191,"beds":"<50","suburb":"Clare","description":"Small regional hospital with emergency services","ogc_fid":199,"street_address":"47 Farrell Flat Road","lat":-33.829588},"id":"my_hospital_beds.199"},{"type":"Feature","geometry":{"type":"Point","coordinates":[147.632174,-22.826219]},"properties":{"sector":"Public","hospital_name":"Clermont Hospital","phone_number":"07 4983 4000","website":"www.health.qld.gov.au\/services\/mackay\/clerm_mphs.asp","state":"Qld","long":147.632174,"postcode":4721,"bed_cat":1,"id":192,"beds":"<50","suburb":"Clermont","description":"Small regional hospital with emergency services","ogc_fid":200,"street_address":"Francis Street","lat":-22.826219},"id":"my_hospital_beds.200"},{"type":"Feature","geometry":{"type":"Point","coordinates":[136.494162,-33.697779]},"properties":{"sector":"Public","hospital_name":"Cleve District Hospital and Aged Care","phone_number":"08 8628 2665","website":"www.sahealth.sa.gov.au\/wps\/wcm\/connect\/public+content\/sa+health+internet\/health+services\/hospitals+and+health+services+-+country+south+australia\/eyre+peninsula+western+hospitals+health+services\/cleve+campus","state":"SA","long":136.494162,"postcode":5640,"bed_cat":1,"id":193,"beds":"<50","suburb":"Cleve","description":"Small regional hospital with emergency services","ogc_fid":201,"street_address":"North Terrace","lat":-33.697779},"id":"my_hospital_beds.201"},{"type":"Feature","geometry":{"type":"Point","coordinates":[140.527571,-20.704166]},